"Region","SiteCode","SiteName","SiteLat","SiteLong","maxDHW","maxSSTA","Jan_SST_cl","Feb_SST_cl","Mar_SST_cl","Apr_SST_cl","May_SST_cl","Jun_SST_cl","Jul_SST_cl","Aug_SST_cl","Sep_SST_cl","Oct_SST_cl","Nov_SST_cl","Dec_SST_cl"
"GBR","AIMS1","Masthead Site 3",-23.53652,151.75731,0,1.69999992847443,26.9337501525879,27.1477661132812,26.3216361999512,25.212890625,23.7200393676758,22.0535221099854,20.8189907073975,20.5020980834961,21.2329845428467,22.760627746582,24.3305988311768,25.8702411651611
"GBR","AIMS10","North Island Site 1",-23.175483,151.908633,0,1.77999997138977,26.8429889678955,27.1853828430176,26.5010795593262,25.4858551025391,24.2241916656494,22.7908306121826,21.6670799255371,21.2359104156494,21.619836807251,22.80686378479,24.3164119720459,25.791130065918
"GBR","AIMS12","North Island Site 3",-23.1778,151.915433,0,1.77999997138977,26.8429889678955,27.1853828430176,26.5010795593262,25.4858551025391,24.2241916656494,22.7908306121826,21.6670799255371,21.2359104156494,21.619836807251,22.80686378479,24.3164119720459,25.791130065918
"GBR","AIMS2","Masthead Site 1",-23.5341,151.74968,0,1.71999990940094,26.9605808258057,27.164665222168,26.3308868408203,25.2001190185547,23.6773719787598,21.9843196868896,20.7495365142822,20.4317188262939,21.2098579406738,22.7651538848877,24.3397884368896,25.8838672637939
"GBR","AIMS4","Erskyne Island Site 1",-23.49835,151.7747,0,1.69999992847443,26.9224662780762,27.1523494720459,26.3449630737305,25.2410278320312,23.7794513702393,22.1530094146729,20.9519844055176,20.6209335327148,21.2984313964844,22.7702522277832,24.332950592041,25.8688068389893
"GBR","AIMS5","Erskyne Island Site 2",-23.49845,151.7789,0,1.69999992847443,26.9224662780762,27.1523494720459,26.3449630737305,25.2410278320312,23.7794513702393,22.1530094146729,20.9519844055176,20.6209335327148,21.2984313964844,22.7702522277832,24.332950592041,25.8688068389893
"GBR","AIMS7","Broomfield Reef Site 2",-23.25245,151.94545,0,1.71999990940094,26.8169479370117,27.1369686126709,26.4460868835449,25.4168090820312,24.1458568572998,22.6869659423828,21.5672073364258,21.1519527435303,21.5609092712402,22.7828006744385,24.2868614196777,25.7776718139648
"GBR","AIMS8","Broomfield Reef Site 1",-23.249566,151.94255,0,1.75,26.8245449066162,27.1576499938965,26.4747772216797,25.4522285461426,24.1882877349854,22.7455406188965,21.626371383667,21.2032871246338,21.5926265716553,22.7927856445312,24.2964382171631,25.7778739929199
"GBR","COR11","Hastings Reef",-16.52825,145.99349,4.73000001907349,2.60999989509583,28.558162689209,28.6825695037842,27.9930152893066,26.9737911224365,25.673957824707,24.2007503509521,23.6212291717529,23.6586036682129,24.4778537750244,25.7085762023926,27.0820388793945,27.8940105438232
"GBR","COR12","Agincourt Reef - The Gap",-15.9758,145.8291,6.05999994277954,2.3899998664856,28.4578285217285,28.6786460876465,28.0767040252686,27.0598754882812,25.8595390319824,24.5346183776855,23.974609375,23.8597812652588,24.5902538299561,25.6592617034912,27.0206775665283,27.8904209136963
"GBR","COR13","Agincourt Reef - The Point",-15.96846,145.81968,6.05999994277954,2.3899998664856,28.4578285217285,28.6786460876465,28.0767040252686,27.0598754882812,25.8595390319824,24.5346183776855,23.974609375,23.8597812652588,24.5902538299561,25.6592617034912,27.0206775665283,27.8904209136963
"GBR","COR14","Agincourt Reef - Three Sisters",-15.9609,145.80432,6.05999994277954,2.3899998664856,28.4578285217285,28.6786460876465,28.0767040252686,27.0598754882812,25.8595390319824,24.5346183776855,23.974609375,23.8597812652588,24.5902538299561,25.6592617034912,27.0206775665283,27.8904209136963
"GBR","CS1","Long Reef West",-19.29696,152.23517,3.04999995231628,1.86000001430511,27.5957145690918,27.8108596801758,27.3276119232178,26.662540435791,25.7577991485596,24.6533870697021,23.8914165496826,23.5295295715332,23.9536800384521,25.0476570129395,26.1225090026855,27.0064125061035
"GBR","CS10","NE Herald Cay SW",-16.947773,149.182624,8.65999984741211,2.05999994277954,28.2184066772461,28.3410358428955,27.881778717041,27.1324100494385,26.3281383514404,25.2778854370117,24.5816802978516,24.3941650390625,24.7168312072754,25.7291450500488,26.7963371276855,27.7065887451172
"GBR","CS101","Diamond Cay Islet",-17.41432,151.07258,6.35999965667725,2,27.9621906280518,28.0695686340332,27.6591777801514,26.9878692626953,26.0975208282471,25.1787567138672,24.559814453125,24.1895198822021,24.5186519622803,25.5890884399414,26.6185283660889,27.4331569671631
"GBR","CS102","East Diamond Islet NW",-17.41703,151.07128,6.35999965667725,2,27.9621906280518,28.0695686340332,27.6591777801514,26.9878692626953,26.0975208282471,25.1787567138672,24.559814453125,24.1895198822021,24.5186519622803,25.5890884399414,26.6185283660889,27.4331569671631
"GBR","CS103","East Diamond Islet lagoon",-17.43525,151.07027,6.35999965667725,2,27.9621906280518,28.0695686340332,27.6591777801514,26.9878692626953,26.0975208282471,25.1787567138672,24.559814453125,24.1895198822021,24.5186519622803,25.5890884399414,26.6185283660889,27.4331569671631
"GBR","CS104","East Diamond Islet Tower",-17.4347,151.07127,6.35999965667725,2,27.9621906280518,28.0695686340332,27.6591777801514,26.9878692626953,26.0975208282471,25.1787567138672,24.559814453125,24.1895198822021,24.5186519622803,25.5890884399414,26.6185283660889,27.4331569671631
"GBR","CS11","NE Herald Cay Central",-16.93653,149.19696,8.65999984741211,2.05999994277954,28.2184066772461,28.3410358428955,27.881778717041,27.1324100494385,26.3281383514404,25.2778854370117,24.5816802978516,24.3941650390625,24.7168312072754,25.7291450500488,26.7963371276855,27.7065887451172
"GBR","CS110","Tregrosse Outlier Reef Down",-17.71175,150.736917,6.05999994277954,1.84999990463257,27.9601917266846,28.0712661743164,27.6013565063477,26.9117202758789,25.98655128479,25.0513286590576,24.3362712860107,24.0035305023193,24.3979873657227,25.4602737426758,26.5361766815186,27.3707675933838
"GBR","CS111","Tregrosse Outlier Reef",-17.71298,150.7345,6.05999994277954,1.84999990463257,27.9601917266846,28.0712661743164,27.6013565063477,26.9117202758789,25.98655128479,25.0513286590576,24.3362712860107,24.0035305023193,24.3979873657227,25.4602737426758,26.5361766815186,27.3707675933838
"GBR","CS113","Tregosse Reef",-17.77473,150.63277,5.60999965667725,1.87000000476837,27.9700679779053,28.1035537719727,27.6121692657471,26.9322738647461,25.9832916259766,25.0548934936523,24.320930480957,24.0325984954834,24.4080410003662,25.4625053405762,26.5451278686523,27.3696193695068
"GBR","CS12","NE Herald Bommie",-16.93007,149.19332,8.65999984741211,2.05999994277954,28.2184066772461,28.3410358428955,27.881778717041,27.1324100494385,26.3281383514404,25.2778854370117,24.5816802978516,24.3941650390625,24.7168312072754,25.7291450500488,26.7963371276855,27.7065887451172
"GBR","CS122","South Flinders Horseshoe centre",-17.87718,148.51165,5.51999998092651,2.16999983787537,28.2554721832275,28.3186550140381,27.7299976348877,27.0186767578125,25.9132499694824,24.8902168273926,24.196418762207,23.9801616668701,24.4191570281982,25.4639263153076,26.6591205596924,27.5787525177002
"GBR","CS123","South Flinders Horseshoe NW",-17.82899,148.50514,5.51999998092651,2.16999983787537,28.2472362518311,28.3194923400879,27.7188835144043,27.0103149414062,25.9127426147461,24.8973293304443,24.2067966461182,23.9946880340576,24.4156818389893,25.4613704681396,26.6545810699463,27.5633773803711
"GBR","CS126","Flinders Ribbon Reef South Cay",-17.71666,148.43873,5.51999998092651,2.1399998664856,28.2577438354492,28.3281669616699,27.7079887390137,26.9980964660645,25.9307994842529,24.9023494720459,24.1991443634033,24.0042915344238,24.4256725311279,25.4681568145752,26.6659297943115,27.5877170562744
"GBR","CS127","Flinders Ribbon Reef South Cay SW",-17.71505,148.4373,5.51999998092651,2.1399998664856,28.2577438354492,28.3281669616699,27.7079887390137,26.9980964660645,25.9307994842529,24.9023494720459,24.1991443634033,24.0042915344238,24.4256725311279,25.4681568145752,26.6659297943115,27.5877170562744
"GBR","CS128","Flinders Cay Storm Bommie",-17.70575,148.4606,5.82999992370605,2.15999984741211,28.2484703063965,28.317195892334,27.7068405151367,27.0002098083496,25.9231910705566,24.9077262878418,24.2122135162354,24.0122089385986,24.418384552002,25.4629955291748,26.6573314666748,27.5664863586426
"GBR","CS129","Flinders Ribbon Reef South Cay E bommie",-17.70304,148.46176,5.82999992370605,2.15999984741211,28.2484703063965,28.317195892334,27.7068405151367,27.0002098083496,25.9231910705566,24.9077262878418,24.2122135162354,24.0122089385986,24.418384552002,25.4629955291748,26.6573314666748,27.5664863586426
"GBR","CS13","NE Herald Back Reef",-16.92822,149.20228,8.9399995803833,2.0699999332428,28.2184505462646,28.3393115997314,27.8858909606934,27.1278667449951,26.3302364349365,25.2850246429443,24.5803279876709,24.40891456604,24.7157344818115,25.7354221343994,26.7931804656982,27.6987285614014
"GBR","CS130","Chilcott Islet bommie",-16.93133,149.999,8.03999996185303,2.36999988555908,28.1951885223389,28.2801170349121,27.8483695983887,27.0830478668213,26.2664775848389,25.376781463623,24.6307125091553,24.4687938690186,24.7686252593994,25.7091083526611,26.7252426147461,27.5221843719482
"GBR","CS131","Chilcott Islet Haven",-16.93012,150.00203,8.39999961853027,2.32999992370605,28.1822147369385,28.2658386230469,27.8394203186035,27.0775947570801,26.257209777832,25.3777465820312,24.6299419403076,24.4605617523193,24.7647819519043,25.7034225463867,26.7230129241943,27.5134315490723
"GBR","CS132","Chilcott Islet SW inner reef",-16.93157,149.99043,8.03999996185303,2.36999988555908,28.1951885223389,28.2801170349121,27.8483695983887,27.0830478668213,26.2664775848389,25.376781463623,24.6307125091553,24.4687938690186,24.7686252593994,25.7091083526611,26.7252426147461,27.5221843719482
"GBR","CS134","Chilcott Islet inshore reef",-16.9366,150.00092,8.39999961853027,2.32999992370605,28.1822147369385,28.2658386230469,27.8394203186035,27.0775947570801,26.257209777832,25.3777465820312,24.6299419403076,24.4605617523193,24.7647819519043,25.7034225463867,26.7230129241943,27.5134315490723
"GBR","CS139","Magdelaine Cay SW",-16.53378,150.26845,10.039999961853,2.27999997138977,28.1739883422852,28.3107776641846,27.9417877197266,27.2160987854004,26.4127044677734,25.5165882110596,24.8096237182617,24.6105327606201,24.9159088134766,25.798002243042,26.8289642333984,27.6471214294434
"GBR","CS140","Magdelaine Cay gulch",-16.53091,150.26973,10.039999961853,2.27999997138977,28.1739883422852,28.3107776641846,27.9417877197266,27.2160987854004,26.4127044677734,25.5165882110596,24.8096237182617,24.6105327606201,24.9159088134766,25.798002243042,26.8289642333984,27.6471214294434
"GBR","CS141","Magdelaine Reef Cruise Ship",-16.52097,150.27712,10.039999961853,2.27999997138977,28.1739883422852,28.3107776641846,27.9417877197266,27.2160987854004,26.4127044677734,25.5165882110596,24.8096237182617,24.6105327606201,24.9159088134766,25.798002243042,26.8289642333984,27.6471214294434
"GBR","CS143","South Willis islet south",-16.29907,149.96294,10.3800001144409,2.3199999332428,28.2199974060059,28.3696155548096,27.9836483001709,27.2281246185303,26.4994277954102,25.5560169219971,24.8652267456055,24.6296100616455,24.9343566894531,25.8805370330811,26.871862411499,27.7307434082031
"GBR","CS144","Willis Islet Dark Wall",-16.28601,149.95958,10.3800001144409,2.3199999332428,28.2199974060059,28.3696155548096,27.9836483001709,27.2281246185303,26.4994277954102,25.5560169219971,24.8652267456055,24.6296100616455,24.9343566894531,25.8805370330811,26.871862411499,27.7307434082031
"GBR","CS145","South Willis islet anchorage bommie",-16.2927,149.96138,10.3800001144409,2.3199999332428,28.2199974060059,28.3696155548096,27.9836483001709,27.2281246185303,26.4994277954102,25.5560169219971,24.8652267456055,24.6296100616455,24.9343566894531,25.8805370330811,26.871862411499,27.7307434082031
"GBR","CS146","Holmes South Cay Inner Reef",-16.49974,147.84345,9.64999961853027,2.15999984741211,28.3832683563232,28.4891204833984,27.9775066375732,27.1990356445312,26.2306823730469,25.2537288665771,24.5867195129395,24.3317241668701,24.8447284698486,25.7053070068359,26.9294052124023,27.7914371490479
"GBR","CS147","Holmes Reef Cay Buoy Wall",-16.51274,147.84033,9.42999935150146,2.16999983787537,28.3781242370605,28.480806350708,27.970775604248,27.1842441558838,26.2220611572266,25.2369232177734,24.568883895874,24.3100643157959,24.8326568603516,25.6918087005615,26.9192962646484,27.7814712524414
"GBR","CS148","Holmes South Cay South Reef",-16.50813,147.84016,9.42999935150146,2.16999983787537,28.3781242370605,28.480806350708,27.970775604248,27.1842441558838,26.2220611572266,25.2369232177734,24.568883895874,24.3100643157959,24.8326568603516,25.6918087005615,26.9192962646484,27.7814712524414
"GBR","CS149","Holmes South Cay South Inner Reef",-16.50487,147.84137,9.42999935150146,2.16999983787537,28.3781242370605,28.480806350708,27.970775604248,27.1842441558838,26.2220611572266,25.2369232177734,24.568883895874,24.3100643157959,24.8326568603516,25.6918087005615,26.9192962646484,27.7814712524414
"GBR","CS15","Chilcott Bommie",-16.92247,150.00647,8.39999961853027,2.32999992370605,28.1822147369385,28.2658386230469,27.8394203186035,27.0775947570801,26.257209777832,25.3777465820312,24.6299419403076,24.4605617523193,24.7647819519043,25.7034225463867,26.7230129241943,27.5134315490723
"GBR","CS150","Holmes Reef South Cay Swim through",-16.49493,147.84932,9.64999961853027,2.15999984741211,28.3832683563232,28.4891204833984,27.9775066375732,27.1990356445312,26.2306823730469,25.2537288665771,24.5867195129395,24.3317241668701,24.8447284698486,25.7053070068359,26.9294052124023,27.7914371490479
"GBR","CS151","Holmes N Cay anchorage",-16.47592,147.86608,9.63000011444092,2.21000003814697,28.3715724945068,28.4874477386475,27.9762668609619,27.2026081085205,26.2283267974854,25.2562427520752,24.5898399353027,24.3281879425049,24.8320579528809,25.704231262207,26.9185485839844,27.7812194824219
"GBR","CS152","Holmes N Cay bommie",-16.46823,147.86472,9.63000011444092,2.21000003814697,28.3715724945068,28.4874477386475,27.9762668609619,27.2026081085205,26.2283267974854,25.2562427520752,24.5898399353027,24.3281879425049,24.8320579528809,25.704231262207,26.9185485839844,27.7812194824219
"GBR","CS153","Inner Osprey East",-13.85535,146.62455,11.9299993515015,2.30999994277954,28.5642776489258,28.6871376037598,28.1860370635986,27.5795497894287,26.7429161071777,25.7229137420654,25.0952739715576,24.7271709442139,25.0609855651855,25.9725456237793,27.1358852386475,28.1990909576416
"GBR","CS154","Inside Osprey NE",-13.854,146.6254,11.9299993515015,2.30999994277954,28.5642776489258,28.6871376037598,28.1860370635986,27.5795497894287,26.7429161071777,25.7229137420654,25.0952739715576,24.7271709442139,25.0609855651855,25.9725456237793,27.1358852386475,28.1990909576416
"GBR","CS155","Osprey Pass South",-13.8914,146.55312,11.8199996948242,2.27999997138977,28.5638656616211,28.6890506744385,28.1743755340576,27.5724544525146,26.7294216156006,25.7138118743896,25.0943946838379,24.7191581726074,25.0555362701416,25.9659252166748,27.131519317627,28.2006759643555
"GBR","CS156","Osprey Pass",-13.88295,146.56243,11.8199996948242,2.27999997138977,28.5638656616211,28.6890506744385,28.1743755340576,27.5724544525146,26.7294216156006,25.7138118743896,25.0943946838379,24.7191581726074,25.0555362701416,25.9659252166748,27.131519317627,28.2006759643555
"GBR","CS157","Osprey Pass Channel",-13.8954,146.5576,11.8199996948242,2.27999997138977,28.5638656616211,28.6890506744385,28.1743755340576,27.5724544525146,26.7294216156006,25.7138118743896,25.0943946838379,24.7191581726074,25.0555362701416,25.9659252166748,27.131519317627,28.2006759643555
"GBR","CS158","Osprey Castle",-13.87003,146.57765,11.8199996948242,2.27999997138977,28.5638656616211,28.6890506744385,28.1743755340576,27.5724544525146,26.7294216156006,25.7138118743896,25.0943946838379,24.7191581726074,25.0555362701416,25.9659252166748,27.131519317627,28.2006759643555
"GBR","CS16","Chilcott NE",-16.92251,150.01143,8.39999961853027,2.32999992370605,28.1822147369385,28.2658386230469,27.8394203186035,27.0775947570801,26.257209777832,25.3777465820312,24.6299419403076,24.4605617523193,24.7647819519043,25.7034225463867,26.7230129241943,27.5134315490723
"GBR","CS17","SW South West Islet",-16.97162,149.90476,8,2.34999990463257,28.1862335205078,28.2753677368164,27.8404560089111,27.0606479644775,26.25390625,25.344165802002,24.608528137207,24.4517021179199,24.7548370361328,25.705041885376,26.7100067138672,27.5206184387207
"GBR","CS171","Bougainville Reef southwest",-15.48855,147.0903,10.8699998855591,2.49000000953674,28.5074119567871,28.5874843597412,28.152738571167,27.4123229980469,26.4905319213867,25.5151176452637,24.7728023529053,24.5333728790283,24.9859008789062,25.9410820007324,27.1022891998291,28.0317459106445
"GBR","CS172","Bougainville Reef W central",-15.48253,147.0993,10.8699998855591,2.49000000953674,28.5074119567871,28.5874843597412,28.152738571167,27.4123229980469,26.4905319213867,25.5151176452637,24.7728023529053,24.5333728790283,24.9859008789062,25.9410820007324,27.1022891998291,28.0317459106445
"GBR","CS173","Bougainville Reef lagoon",-15.48885,147.10716,10.6499996185303,2.5,28.4996948242188,28.5898418426514,28.1524028778076,27.4241352081299,26.4962406158447,25.5232200622559,24.7816963195801,24.5371036529541,24.9907836914062,25.9515247344971,27.1057720184326,28.0351963043213
"GBR","CS174","Bougainville Reef Lagoon East",-15.48433,147.10759,10.6499996185303,2.5,28.4996948242188,28.5898418426514,28.1524028778076,27.4241352081299,26.4962406158447,25.5232200622559,24.7816963195801,24.5371036529541,24.9907836914062,25.9515247344971,27.1057720184326,28.0351963043213
"GBR","CS175","Bougainville Reef point",-15.4908,147.08723,10.8699998855591,2.49000000953674,28.5074119567871,28.5874843597412,28.152738571167,27.4123229980469,26.4905319213867,25.5151176452637,24.7728023529053,24.5333728790283,24.9859008789062,25.9410820007324,27.1022891998291,28.0317459106445
"GBR","CS176","Bougainville Reef inlet",-15.48135,147.10453,10.6499996185303,2.5,28.4996948242188,28.5898418426514,28.1524028778076,27.4241352081299,26.4962406158447,25.5232200622559,24.7816963195801,24.5371036529541,24.9907836914062,25.9515247344971,27.1057720184326,28.0351963043213
"GBR","CS177","Osprey Reef Lagoon South",-13.98559,146.69139,12.2699995040894,2.24000000953674,28.5627880096436,28.6780948638916,28.1959857940674,27.5588417053223,26.7308216094971,25.7217330932617,25.093017578125,24.7223968505859,25.0638885498047,25.9578971862793,27.1306896209717,28.1648120880127
"GBR","CS178","Osprey South reef flat",-13.99381,146.69067,12.2699995040894,2.24000000953674,28.5627880096436,28.6780948638916,28.1959857940674,27.5588417053223,26.7308216094971,25.7217330932617,25.093017578125,24.7223968505859,25.0638885498047,25.9578971862793,27.1306896209717,28.1648120880127
"GBR","CS179","Osprey south bommie",-13.97563,146.67549,12.2699995040894,2.24000000953674,28.5627880096436,28.6780948638916,28.1959857940674,27.5588417053223,26.7308216094971,25.7217330932617,25.093017578125,24.7223968505859,25.0638885498047,25.9578971862793,27.1306896209717,28.1648120880127
"GBR","CS18","South West Islet Bommie",-16.96134,149.90547,8,2.34999990463257,28.1862335205078,28.2753677368164,27.8404560089111,27.0606479644775,26.25390625,25.344165802002,24.608528137207,24.4517021179199,24.7548370361328,25.705041885376,26.7100067138672,27.5206184387207
"GBR","CS180","Osprey S W Bommie",-13.96688,146.66721,12.2699995040894,2.24000000953674,28.5627880096436,28.6780948638916,28.1959857940674,27.5588417053223,26.7308216094971,25.7217330932617,25.093017578125,24.7223968505859,25.0638885498047,25.9578971862793,27.1306896209717,28.1648120880127
"GBR","CS181","Osprey S E Lagoon",-13.96617,146.6806,12.2699995040894,2.24000000953674,28.5627880096436,28.6780948638916,28.1959857940674,27.5588417053223,26.7308216094971,25.7217330932617,25.093017578125,24.7223968505859,25.0638885498047,25.9578971862793,27.1306896209717,28.1648120880127
"GBR","CS182","Osprey Lagoon entrance bommie",-13.89028,146.57249,11.8199996948242,2.27999997138977,28.5638656616211,28.6890506744385,28.1743755340576,27.5724544525146,26.7294216156006,25.7138118743896,25.0943946838379,24.7191581726074,25.0555362701416,25.9659252166748,27.131519317627,28.2006759643555
"GBR","CS183","Osprey Lagoon Entrance NW Bommie",-13.88715,146.56733,11.8199996948242,2.27999997138977,28.5638656616211,28.6890506744385,28.1743755340576,27.5724544525146,26.7294216156006,25.7138118743896,25.0943946838379,24.7191581726074,25.0555362701416,25.9659252166748,27.131519317627,28.2006759643555
"GBR","CS184","Osprey Reef North Horn",-13.80117,146.54613,11.7299995422363,2.35999989509583,28.5664558410645,28.6941032409668,28.1626777648926,27.5825386047363,26.729248046875,25.7203426361084,25.1092014312744,24.7216758728027,25.0540561676025,25.9746437072754,27.1384220123291,28.2107601165771
"GBR","CS185","Ashmore reef lagoon South",-10.44533,144.44918,9.03999996185303,2.32999992370605,28.4754543304443,28.3028755187988,28.2820911407471,27.637393951416,26.8963069915771,25.9153232574463,25.1021175384521,24.8368587493896,25.1636447906494,26.1337871551514,27.2239780426025,28.23317527771
"GBR","CS186","Ashmore South bommie",-10.43422,144.45243,9.48999977111816,2.35999989509583,28.4836807250977,28.315788269043,28.2917804718018,27.638053894043,26.9060497283936,25.9238090515137,25.1153144836426,24.8474140167236,25.1553058624268,26.1307048797607,27.2270698547363,28.227388381958
"GBR","CS187","Ashmore South lagoon shore",-10.44136,144.45293,9.48999977111816,2.35999989509583,28.4836807250977,28.315788269043,28.2917804718018,27.638053894043,26.9060497283936,25.9238090515137,25.1153144836426,24.8474140167236,25.1553058624268,26.1307048797607,27.2270698547363,28.227388381958
"GBR","CS188","Ashmore Rf Lagoon Bommie SW",-10.44121,144.43016,9.03999996185303,2.32999992370605,28.4754543304443,28.3028755187988,28.2820911407471,27.637393951416,26.8963069915771,25.9153232574463,25.1021175384521,24.8368587493896,25.1636447906494,26.1337871551514,27.2239780426025,28.23317527771
"GBR","CS189","Ashmore Rf Lagoon SW",-10.44697,144.43347,9.03999996185303,2.32999992370605,28.4754543304443,28.3028755187988,28.2820911407471,27.637393951416,26.8963069915771,25.9153232574463,25.1021175384521,24.8368587493896,25.1636447906494,26.1337871551514,27.2239780426025,28.23317527771
"GBR","CS190","Ashmore Reef lagoon east entrance",-10.29918,144.5215,9.59999942779541,2.5,28.4520816802979,28.3688011169434,28.261812210083,27.6391983032227,26.9108982086182,25.958890914917,25.1369895935059,24.8911933898926,25.1712684631348,26.1632442474365,27.2058277130127,28.1783294677734
"GBR","CS191","Ashmore Rf Lagoon East Bommie",-10.37448,144.53391,9.88999938964844,2.41999983787537,28.4799041748047,28.3433876037598,28.2883396148682,27.6363716125488,26.911714553833,25.9386672973633,25.1287403106689,24.8679714202881,25.1536483764648,26.1396980285645,27.2193565368652,28.2054634094238
"GBR","CS193","Boot Rf Wall",-10.03875,144.69198,11.2299995422363,2.67999982833862,28.4697685241699,28.4497451782227,28.2556476593018,27.7054386138916,26.9882907867432,26.062780380249,25.2410125732422,24.9511394500732,25.2624454498291,26.2655067443848,27.3205413818359,28.2727317810059
"GBR","CS195","Ashmore North East Entrance",-10.21767,144.5954,10.0900001525879,2.57999992370605,28.4529972076416,28.3940963745117,28.2641639709473,27.648307800293,26.9267101287842,25.9735069274902,25.1550960540771,24.9091796875,25.1800746917725,26.1846523284912,27.2217750549316,28.1787242889404
"GBR","CS197","Ashmore NE Bommie",-10.22733,144.58955,10.0900001525879,2.57999992370605,28.4529972076416,28.3940963745117,28.2641639709473,27.648307800293,26.9267101287842,25.9735069274902,25.1550960540771,24.9091796875,25.1800746917725,26.1846523284912,27.2217750549316,28.1787242889404
"GBR","CS198","Ashmore NE Lagoon",-10.23257,144.58684,10.0900001525879,2.57999992370605,28.4529972076416,28.3940963745117,28.2641639709473,27.648307800293,26.9267101287842,25.9735069274902,25.1550960540771,24.9091796875,25.1800746917725,26.1846523284912,27.2217750549316,28.1787242889404
"GBR","CS2","Brodie Cay NW",-19.28441,152.21197,3.04999995231628,1.86000001430511,27.5957145690918,27.8108596801758,27.3276119232178,26.662540435791,25.7577991485596,24.6533870697021,23.8914165496826,23.5295295715332,23.9536800384521,25.0476570129395,26.1225090026855,27.0064125061035
"GBR","CS20","Cato Bommies",-23.24725,155.53484,0,2.21000003814697,26.8480434417725,26.691801071167,26.1478996276855,25.5716190338135,24.5640354156494,23.5076885223389,22.5035762786865,22.193208694458,22.4098892211914,23.3981628417969,24.5886878967285,25.9220333099365
"GBR","CS200","Ashmore Reef NW slope",-10.11558,144.45777,10.7600002288818,2.66999983787537,28.4178371429443,28.3770790100098,28.2265033721924,27.6645641326904,26.9289894104004,26.0066318511963,25.1590347290039,24.91282081604,25.2304859161377,26.2026748657227,27.221643447876,28.1785163879395
"GBR","CS204","Boot Rock NW",-10.10505,144.68513,10.8400001525879,2.65999984741211,28.4751205444336,28.4377670288086,28.278039932251,27.6835384368896,26.9668407440186,26.0170364379883,25.2040748596191,24.9357414245605,25.2205467224121,26.2355442047119,27.2811622619629,28.2360610961914
"GBR","CS207","Boot Reef Longiceps Point",-9.96837,144.69456,11.4200000762939,2.69000005722046,28.4688949584961,28.4570541381836,28.240406036377,27.715461730957,26.9980278015137,26.0820941925049,25.2586574554443,24.9580955505371,25.2779331207275,26.279354095459,27.3400402069092,28.291597366333
"GBR","CS208","Boot Reef Lagoon E",-9.98877,144.6913,11.4200000762939,2.69000005722046,28.4688949584961,28.4570541381836,28.240406036377,27.715461730957,26.9980278015137,26.0820941925049,25.2586574554443,24.9580955505371,25.2779331207275,26.279354095459,27.3400402069092,28.291597366333
"GBR","CS209","Boot Reef Lagoon W",-9.97456,144.694,11.4200000762939,2.69000005722046,28.4688949584961,28.4570541381836,28.240406036377,27.715461730957,26.9980278015137,26.0820941925049,25.2586574554443,24.9580955505371,25.2779331207275,26.279354095459,27.3400402069092,28.291597366333
"GBR","CS21","Cato Lagoon 1",-23.25288,155.55157,0,2.21000003814697,26.8296985626221,26.6728610992432,26.1266193389893,25.5363597869873,24.5503368377686,23.4922027587891,22.4752044677734,22.1586589813232,22.3691692352295,23.3657817840576,24.5469284057617,25.8948040008545
"GBR","CS211","Kate's Garden",-10.14414,144.57626,10.6700000762939,2.67999982833862,28.4401073455811,28.4060039520264,28.2479019165039,27.6708297729492,26.9484367370605,26.0130214691162,25.1818389892578,24.9277400970459,25.222188949585,26.2156791687012,27.2468681335449,28.1952514648438
"GBR","CS212","Ashmore Reef NE bommy",-10.14587,144.57013,10.6700000762939,2.67999982833862,28.4401073455811,28.4060039520264,28.2479019165039,27.6708297729492,26.9484367370605,26.0130214691162,25.1818389892578,24.9277400970459,25.222188949585,26.2156791687012,27.2468681335449,28.1952514648438
"GBR","CS22","Cato Lagoon South",-23.25491,155.55458,0,2.21000003814697,26.8296985626221,26.6728610992432,26.1266193389893,25.5363597869873,24.5503368377686,23.4922027587891,22.4752044677734,22.1586589813232,22.3691692352295,23.3657817840576,24.5469284057617,25.8948040008545
"GBR","CS23","Cato North",-23.24037,155.55701,0,2.19000005722046,26.8329277038574,26.6780204772949,26.1400375366211,25.5549812316895,24.5592060089111,23.5046882629395,22.4903602600098,22.1771087646484,22.3944664001465,23.3796253204346,24.5758743286133,25.9022655487061
"GBR","CS24","Cato Entrance",-23.24474,155.54233,0,2.21000003814697,26.8480434417725,26.691801071167,26.1478996276855,25.5716190338135,24.5640354156494,23.5076885223389,22.5035762786865,22.193208694458,22.4098892211914,23.3981628417969,24.5886878967285,25.9220333099365
"GBR","CS25","Cato Passage",-23.244,155.54893,0,2.21000003814697,26.8480434417725,26.691801071167,26.1478996276855,25.5716190338135,24.5640354156494,23.5076885223389,22.5035762786865,22.193208694458,22.4098892211914,23.3981628417969,24.5886878967285,25.9220333099365
"GBR","CS3","Brodie Cay SE",-19.28476,152.22077,3.04999995231628,1.86000001430511,27.5957145690918,27.8108596801758,27.3276119232178,26.662540435791,25.7577991485596,24.6533870697021,23.8914165496826,23.5295295715332,23.9536800384521,25.0476570129395,26.1225090026855,27.0064125061035
"GBR","CS31","Bird Lagoon",-22.17677,155.47404,0.159999996423721,2.25999999046326,26.9029846191406,26.9654083251953,26.4647197723389,25.9421882629395,24.8424739837646,23.8199043273926,22.9530086517334,22.7160568237305,22.9476776123047,24.0104084014893,25.0515308380127,26.2517032623291
"GBR","CS32","Bird Reef Hole",-22.17306,155.47695,0.159999996423721,2.25999999046326,26.9029846191406,26.9654083251953,26.4647197723389,25.9421882629395,24.8424739837646,23.8199043273926,22.9530086517334,22.7160568237305,22.9476776123047,24.0104084014893,25.0515308380127,26.2517032623291
"GBR","CS33","Bird North Bommie",-22.16356,155.45378,0.159999996423721,2.25999999046326,26.9029846191406,26.9654083251953,26.4647197723389,25.9421882629395,24.8424739837646,23.8199043273926,22.9530086517334,22.7160568237305,22.9476776123047,24.0104084014893,25.0515308380127,26.2517032623291
"GBR","CS34","Bird Inner West",-22.17084,155.45462,0.159999996423721,2.25999999046326,26.9029846191406,26.9654083251953,26.4647197723389,25.9421882629395,24.8424739837646,23.8199043273926,22.9530086517334,22.7160568237305,22.9476776123047,24.0104084014893,25.0515308380127,26.2517032623291
"GBR","CS35","Bird NW Bommie",-22.16866,155.45081,0.159999996423721,2.25999999046326,26.9029846191406,26.9654083251953,26.4647197723389,25.9421882629395,24.8424739837646,23.8199043273926,22.9530086517334,22.7160568237305,22.9476776123047,24.0104084014893,25.0515308380127,26.2517032623291
"GBR","CS36","Porpoise North",-22.1854,155.36165,0.159999996423721,2.20000004768372,26.9158782958984,26.9864273071289,26.4752025604248,25.9585762023926,24.8568153381348,23.8431034088135,22.9678611755371,22.7396945953369,22.9715938568115,24.0460720062256,25.0719718933105,26.2582607269287
"GBR","CS38","Porpoise Anchorage",-22.18586,155.35576,0.159999996423721,2.20000004768372,26.9158782958984,26.9864273071289,26.4752025604248,25.9585762023926,24.8568153381348,23.8431034088135,22.9678611755371,22.7396945953369,22.9715938568115,24.0460720062256,25.0719718933105,26.2582607269287
"GBR","CS39","Porpoise Lagoon",-22.18985,155.35547,0.159999996423721,2.20000004768372,26.9158782958984,26.9864273071289,26.4752025604248,25.9585762023926,24.8568153381348,23.8431034088135,22.9678611755371,22.7396945953369,22.9715938568115,24.0460720062256,25.0719718933105,26.2582607269287
"GBR","CS4","Paget Cay Bommie",-19.23026,152.32594,3.37999987602234,1.86000001430511,27.5644779205322,27.8114776611328,27.3311576843262,26.6409969329834,25.7650775909424,24.6437149047852,23.890926361084,23.5331439971924,23.9484100341797,25.0316123962402,26.086404800415,26.9930191040039
"GBR","CS41","Wreck North",-22.1977,155.29443,0.149999991059303,2.12999987602234,26.9444122314453,27.0209827423096,26.4930877685547,25.9808864593506,24.8649387359619,23.8732643127441,22.9850444793701,22.7637901306152,23.0053844451904,24.0898113250732,25.1029281616211,26.2804908752441
"GBR","CS42","Hilton Pool",-22.18602,155.17601,0.149999991059303,2.11999988555908,26.9853839874268,27.0812931060791,26.52712059021,26.0079498291016,24.8693885803223,23.8988285064697,23.0054912567139,22.7969169616699,23.0509014129639,24.1389617919922,25.1553001403809,26.307502746582
"GBR","CS44","NW Wreck Reef",-22.17629,155.16463,0.149999991059303,2.11999988555908,26.9853839874268,27.0812931060791,26.52712059021,26.0079498291016,24.8693885803223,23.8988285064697,23.0054912567139,22.7969169616699,23.0509014129639,24.1389617919922,25.1553001403809,26.307502746582
"GBR","CS45","North Wreck Reef",-22.17583,155.17796,0.149999991059303,2.11999988555908,26.9853839874268,27.0812931060791,26.52712059021,26.0079498291016,24.8693885803223,23.8988285064697,23.0054912567139,22.7969169616699,23.0509014129639,24.1389617919922,25.1553001403809,26.307502746582
"GBR","CS47","Saumarez egg seasnake",-21.89659,153.5935,0.479999989271164,1.9099999666214,27.5569190979004,27.6410751342773,27.0136985778809,26.3091678619385,25.3683948516846,24.2683982849121,23.4595966339111,23.2342262268066,23.6399574279785,24.7012844085693,25.8442478179932,26.8978633880615
"GBR","CS48","Saumarez SW reef cay",-21.89729,153.53757,0.340000003576279,1.89999997615814,27.5993537902832,27.6882991790771,27.0494346618652,26.3458347320557,25.4006996154785,24.2863655090332,23.4799823760986,23.2562980651855,23.667516708374,24.7386360168457,25.8850193023682,26.9448928833008
"GBR","CS5","Paget Cay South East",-19.25323,152.3482,3.3199999332428,1.87000000476837,27.5739097595215,27.8084564208984,27.3306446075439,26.6401863098145,25.7635307312012,24.646312713623,23.8860282897949,23.5277767181396,23.9377956390381,25.0219745635986,26.0952014923096,26.9993629455566
"GBR","CS50","Saumarez SW",-21.91736,153.57968,0.189999997615814,1.91999995708466,27.5490398406982,27.6496295928955,27.0117740631104,26.3051338195801,25.356424331665,24.250804901123,23.4507846832275,23.2198028564453,23.6352977752686,24.6945133209229,25.8424377441406,26.8933048248291
"GBR","CS51","Saumarez stripe seasnake",-21.91631,153.58669,0.189999997615814,1.91999995708466,27.5490398406982,27.6496295928955,27.0117740631104,26.3051338195801,25.356424331665,24.250804901123,23.4507846832275,23.2198028564453,23.6352977752686,24.6945133209229,25.8424377441406,26.8933048248291
"GBR","CS52","Kenn Reef anchorage bommie",-21.25707,155.7542,1.57999992370605,2.10999989509583,26.9612121582031,27.1536827087402,26.5922260284424,26.0467395782471,25.0389404296875,23.9729995727539,23.1110668182373,22.8889465332031,23.0306873321533,24.0770378112793,25.2453956604004,26.2502460479736
"GBR","CS54","Kenn Reef bommie",-21.25459,155.75466,1.57999992370605,2.10999989509583,26.9612121582031,27.1536827087402,26.5922260284424,26.0467395782471,25.0389404296875,23.9729995727539,23.1110668182373,22.8889465332031,23.0306873321533,24.0770378112793,25.2453956604004,26.2502460479736
"GBR","CS55","Kenn Labyrinth",-21.2535,155.76086,1.57999992370605,2.10999989509583,26.9612121582031,27.1536827087402,26.5922260284424,26.0467395782471,25.0389404296875,23.9729995727539,23.1110668182373,22.8889465332031,23.0306873321533,24.0770378112793,25.2453956604004,26.2502460479736
"GBR","CS56","Kenn Reef rubble",-21.248,155.76361,1.76999998092651,2.01999998092651,26.9695644378662,27.158748626709,26.6104297637939,26.0595245361328,25.0604515075684,23.9903049468994,23.128002166748,22.9012222290039,23.0293884277344,24.0788803100586,25.2407188415527,26.2459392547607
"GBR","CS57","Kenn Cave",-21.24541,155.76497,1.76999998092651,2.01999998092651,26.9695644378662,27.158748626709,26.6104297637939,26.0595245361328,25.0604515075684,23.9903049468994,23.128002166748,22.9012222290039,23.0293884277344,24.0788803100586,25.2407188415527,26.2459392547607
"GBR","CS58","Kenn Reef North Cay bommie",-21.19993,155.76575,2.1399998664856,1.94999992847443,26.9798488616943,27.1657085418701,26.6341495513916,26.0685997009277,25.0823307037354,24.008882522583,23.1455974578857,22.9176025390625,23.03151512146,24.0842666625977,25.2415103912354,26.2460689544678
"GBR","CS6","Paget Cay South",-19.25796,152.34184,3.3199999332428,1.87000000476837,27.5739097595215,27.8084564208984,27.3306446075439,26.6401863098145,25.7635307312012,24.646312713623,23.8860282897949,23.5277767181396,23.9377956390381,25.0219745635986,26.0952014923096,26.9993629455566
"GBR","CS60","Kenn Reef North Cay",-21.20282,155.77281,1.76999998092651,2.01999998092651,26.9695644378662,27.158748626709,26.6104297637939,26.0595245361328,25.0604515075684,23.9903049468994,23.128002166748,22.9012222290039,23.0293884277344,24.0788803100586,25.2407188415527,26.2459392547607
"GBR","CS61","Kenn Reef Pipeline",-21.20865,155.76982,1.76999998092651,2.01999998092651,26.9695644378662,27.158748626709,26.6104297637939,26.0595245361328,25.0604515075684,23.9903049468994,23.128002166748,22.9012222290039,23.0293884277344,24.0788803100586,25.2407188415527,26.2459392547607
"GBR","CS63","Frederick Passage",-21.0003,154.3944,4,2.08999991416931,27.2540607452393,27.4525680541992,26.9715137481689,26.2410125732422,25.3748874664307,24.349967956543,23.5200634002686,23.2131175994873,23.4127368927002,24.486644744873,25.5727062225342,26.528190612793
"GBR","CS64","Fredrick Central Bommie",-20.99787,154.39374,3.6399998664856,2.05999994277954,27.2536354064941,27.4620685577393,26.9782276153564,26.2520294189453,25.3820457458496,24.3610057830811,23.5278778076172,23.221170425415,23.4156188964844,24.4853382110596,25.5691089630127,26.51833152771
"GBR","CS65","Fredrick central reef",-21.0065,154.39197,4,2.08999991416931,27.2540607452393,27.4525680541992,26.9715137481689,26.2410125732422,25.3748874664307,24.349967956543,23.5200634002686,23.2131175994873,23.4127368927002,24.486644744873,25.5727062225342,26.528190612793
"GBR","CS7","Weather Station Inner Reef",-19.1254,152.38809,4.19000005722046,1.93999993801117,27.5649166107178,27.8343849182129,27.36501121521,26.6536445617676,25.7841567993164,24.6661472320557,23.9214496612549,23.5759105682373,23.9844989776611,25.0612907409668,26.0707626342773,26.991907119751
"GBR","CS71","Quay West Bommie",-21.020283,154.3699,4,2.08999991416931,27.2540607452393,27.4525680541992,26.9715137481689,26.2410125732422,25.3748874664307,24.349967956543,23.5200634002686,23.2131175994873,23.4127368927002,24.486644744873,25.5727062225342,26.528190612793
"GBR","CS72","Fredrick Observatory Cay",-21.02036,154.37269,4,2.08999991416931,27.2540607452393,27.4525680541992,26.9715137481689,26.2410125732422,25.3748874664307,24.349967956543,23.5200634002686,23.2131175994873,23.4127368927002,24.486644744873,25.5727062225342,26.528190612793
"GBR","CS73","North Fredrick Bommie",-20.93697,154.39572,3.57999992370605,2.02999997138977,27.2566738128662,27.4710884094238,26.9871826171875,26.2658538818359,25.3884887695312,24.3708724975586,23.5367565155029,23.2312927246094,23.418737411499,24.4881439208984,25.5680160522461,26.5133991241455
"GBR","CS74","Frederick Lighthouse",-20.93624,154.39723,3.57999992370605,2.02999997138977,27.2566738128662,27.4710884094238,26.9871826171875,26.2658538818359,25.3884887695312,24.3708724975586,23.5367565155029,23.2312927246094,23.418737411499,24.4881439208984,25.5680160522461,26.5133991241455
"GBR","CS8","Carola Cay",-19.09532,152.38714,4.56999969482422,1.96999990940094,27.5668678283691,27.8445644378662,27.3839702606201,26.6642875671387,25.7915802001953,24.6825389862061,23.9389572143555,23.5993423461914,24.0079803466797,25.0839214324951,26.0729866027832,26.9916191101074
"GBR","CS9","NE Herald Cay NE",-16.921938,149.200022,8.9399995803833,2.0699999332428,28.2184505462646,28.3393115997314,27.8858909606934,27.1278667449951,26.3302364349365,25.2850246429443,24.5803279876709,24.40891456604,24.7157344818115,25.7354221343994,26.7931804656982,27.6987285614014
"GBR","GBR16","Tryon Island south",-23.24659,151.77309,0,1.67999994754791,26.8835620880127,27.2157077789307,26.4757595062256,25.4015655517578,24.0639419555664,22.5846462249756,21.4372730255127,21.0261554718018,21.5190773010254,22.7967681884766,24.3395252227783,25.8579597473145
"GBR","GBR17","Tryon Island south west",-23.24371,151.77568,0,1.67999994754791,26.8835620880127,27.2157077789307,26.4757595062256,25.4015655517578,24.0639419555664,22.5846462249756,21.4372730255127,21.0261554718018,21.5190773010254,22.7967681884766,24.3395252227783,25.8579597473145
"GBR","GBR2","Lady Musgrave Lagoon N",-23.89878,152.41618,0.759999990463257,1.73000001907349,26.7459850311279,27.1171932220459,26.4308280944824,25.5303993225098,24.324592590332,22.8919219970703,21.6800518035889,21.3569221496582,21.7274951934814,22.8854274749756,24.3126316070557,25.6622905731201
"GBR","GBR24","Hook Reef Passage",-19.81261,149.13292,2.60999989509583,2.16999983787537,27.9590511322021,28.1576061248779,27.5689506530762,26.5805244445801,25.2348766326904,23.4984111785889,22.3948211669922,22.3203353881836,23.2773132324219,24.7918434143066,26.283332824707,27.2620983123779
"GBR","GBR25","Hook Reef1",-19.81349,149.13617,2.60999989509583,2.16999983787537,27.9590511322021,28.1576061248779,27.5689506530762,26.5805244445801,25.2348766326904,23.4984111785889,22.3948211669922,22.3203353881836,23.2773132324219,24.7918434143066,26.283332824707,27.2620983123779
"GBR","GBR3","Lady Musgrave West central",-23.89929,152.39361,0.599999964237213,1.69999992847443,26.730001449585,27.0943584442139,26.4116287231445,25.4865131378174,24.2695503234863,22.810022354126,21.5712814331055,21.2511520385742,21.6427059173584,22.8365345001221,24.2752342224121,25.6377563476562
"GBR","GBR39","Cod Hole",-14.66452,145.6632,11.4899997711182,2.51999998092651,28.4014167785645,28.553897857666,28.1274261474609,27.1914348602295,26.1144905090332,25.0006942749023,24.3449783325195,24.1131534576416,24.6747608184814,25.686710357666,26.9792709350586,27.9026374816895
"GBR","GBR41","Tydeman Cay anchorage",-13.97733,144.50067,7.75999975204468,2.37999987602234,28.4959964752197,28.5525035858154,28.0673484802246,27.2233238220215,26.0011234283447,24.7265205383301,24.1279296875,23.9916820526123,24.6309280395508,25.7279167175293,27.0568313598633,28.0317497253418
"GBR","GBR42","Tydeman Rf W",-13.98066,144.50024,7.75999975204468,2.37999987602234,28.4959964752197,28.5525035858154,28.0673484802246,27.2233238220215,26.0011234283447,24.7265205383301,24.1279296875,23.9916820526123,24.6309280395508,25.7279167175293,27.0568313598633,28.0317497253418
"GBR","GBR45","Forbes Island west boulders",-12.28595,143.40371,9.34999942779541,2.40999984741211,28.8791580200195,28.6463356018066,28.3358688354492,27.5186138153076,26.3078842163086,25.1463317871094,24.2967052459717,24.0894794464111,24.8673496246338,26.0686378479004,27.5059280395508,28.562370300293
"GBR","GBR46","Forbes Island NE",-12.28241,143.41092,9.34999942779541,2.40999984741211,28.8791580200195,28.6463356018066,28.3358688354492,27.5186138153076,26.3078842163086,25.1463317871094,24.2967052459717,24.0894794464111,24.8673496246338,26.0686378479004,27.5059280395508,28.562370300293
"GBR","GBR47","Forbes Island bommie",-12.28121,143.40709,9.34999942779541,2.40999984741211,28.8791580200195,28.6463356018066,28.3358688354492,27.5186138153076,26.3078842163086,25.1463317871094,24.2967052459717,24.0894794464111,24.8673496246338,26.0686378479004,27.5059280395508,28.562370300293
"GBR","GBR48","Forbes Island Bommie West",-12.28091,143.40302,9.34999942779541,2.40999984741211,28.8791580200195,28.6463356018066,28.3358688354492,27.5186138153076,26.3078842163086,25.1463317871094,24.2967052459717,24.0894794464111,24.8673496246338,26.0686378479004,27.5059280395508,28.562370300293
"GBR","GBR49","Forbes Island Isthmus Rf",-12.29055,143.40232,9.34999942779541,2.40999984741211,28.8791580200195,28.6463356018066,28.3358688354492,27.5186138153076,26.3078842163086,25.1463317871094,24.2967052459717,24.0894794464111,24.8673496246338,26.0686378479004,27.5059280395508,28.562370300293
"GBR","GBR51","Seven Reefs east",-10.28793,143.71759,3.70999979972839,2.05999994277954,28.6416149139404,28.4060401916504,28.1885929107666,27.7284984588623,26.950553894043,25.9222812652588,25.0488700866699,24.7372398376465,25.181547164917,26.0886268615723,27.2494640350342,28.3343315124512
"GBR","GBR52","Seven Reefs Anchorage",-10.2875,143.70978,3.70999979972839,2.05999994277954,28.6416149139404,28.4060401916504,28.1885929107666,27.7284984588623,26.950553894043,25.9222812652588,25.0488700866699,24.7372398376465,25.181547164917,26.0886268615723,27.2494640350342,28.3343315124512
"GBR","GBR53","Salamander Reef",-11.76571,143.65005,8.76000022888184,2.28999996185303,28.7162609100342,28.5557804107666,28.2716083526611,27.4921131134033,26.4807891845703,25.4410037994385,24.6658458709717,24.3849334716797,24.90797996521,25.9848232269287,27.2483329772949,28.4542331695557
"GBR","GBR54","Two Hour Reef",-12.16237,143.64859,6.87999963760376,2.14999985694885,28.6918525695801,28.4997634887695,28.1954212188721,27.4819183349609,26.3776226043701,25.3081188201904,24.5106353759766,24.218729019165,24.853364944458,25.925573348999,27.2923965454102,28.3559188842773
"GBR","GBR55","Lagoon Reef Inner NW",-12.38375,143.76197,8.39999961853027,2.15999984741211,28.4452533721924,28.375036239624,28.092601776123,27.4478187561035,26.3419284820557,25.3551807403564,24.6190280914307,24.2961463928223,24.8118095397949,25.7515430450439,27.0950984954834,28.1140460968018
"GBR","GBR56","Lagoon Reef Outer NW",-12.38175,143.75672,8.39999961853027,2.15999984741211,28.4452533721924,28.375036239624,28.092601776123,27.4478187561035,26.3419284820557,25.3551807403564,24.6190280914307,24.2961463928223,24.8118095397949,25.7515430450439,27.0950984954834,28.1140460968018
"GBR","GBR57","Lagoon Reef Inner E",-12.38391,143.772,8.39999961853027,2.15999984741211,28.4452533721924,28.375036239624,28.092601776123,27.4478187561035,26.3419284820557,25.3551807403564,24.6190280914307,24.2961463928223,24.8118095397949,25.7515430450439,27.0950984954834,28.1140460968018
"GBR","GBR58","Burke Reef",-12.62531,143.58327,7.17000007629395,2.12999987602234,28.6279239654541,28.5536994934082,28.2518615722656,27.4782562255859,26.1907634735107,25.1093673706055,24.2918548583984,24.085412979126,24.819652557373,25.9313831329346,27.3614845275879,28.3769397735596
"GBR","GBR59","Shark Reef",-12.87385,143.8151,8.28999996185303,2.25,28.4118614196777,28.494047164917,28.1126251220703,27.3974895477295,26.2595710754395,25.1959533691406,24.4881782531738,24.2152309417725,24.7788372039795,25.7820053100586,27.1081428527832,28.1272525787354
"GBR","GBR60","Shark Reef Gardens",-12.87695,143.82034,8.28999996185303,2.25,28.4118614196777,28.494047164917,28.1126251220703,27.3974895477295,26.2595710754395,25.1959533691406,24.4881782531738,24.2152309417725,24.7788372039795,25.7820053100586,27.1081428527832,28.1272525787354
"GBR","GBR62","Crocodile Bommie",-13.8185,144.28213,9.48999977111816,2.39999985694885,28.4083099365234,28.4733104705811,28.0589084625244,27.2028675079346,26.0391788482666,24.8331089019775,24.1908378601074,24.0422286987305,24.5811443328857,25.6351661682129,27.013557434082,28.0089263916016
"GBR","GBR63","Surprise Reef",-13.99527,144.68397,8.67000007629395,2.41999983787537,28.479528427124,28.5443687438965,28.0435447692871,27.2418613433838,26.0065441131592,24.7889823913574,24.2212104797363,24.0777320861816,24.6561584472656,25.7422504425049,27.0352764129639,28.0022029876709
"GBR","GBR64","Surprise Reef Paradise",-13.98947,144.67643,8.67000007629395,2.41999983787537,28.479528427124,28.5443687438965,28.0435447692871,27.2418613433838,26.0065441131592,24.7889823913574,24.2212104797363,24.0777320861816,24.6561584472656,25.7422504425049,27.0352764129639,28.0022029876709
"GBR","GBR65","Surprise Reef Rubble",-14.0108,144.71335,8.84999942779541,2.49000000953674,28.482385635376,28.5535221099854,28.0461730957031,27.2215003967285,25.9421482086182,24.6863212585449,24.1168212890625,23.9891986846924,24.619701385498,25.7468795776367,27.0385971069336,28.0050849914551
"GBR","GBR67","Day Reef Inner",-14.51742,145.5309,10.7600002288818,2.47000002861023,28.3951625823975,28.5700340270996,28.0957775115967,27.1811103820801,26.0305290222168,24.8664016723633,24.2065162658691,24.0490112304688,24.6558094024658,25.6939716339111,26.980562210083,27.9164886474609
"GBR","GBR70","Low Isles 1",-16.3835,145.571,2.61999988555908,2.75999999046326,28.6241493225098,28.8501605987549,28.1273975372314,26.8191928863525,25.4189338684082,23.7568073272705,23.0168056488037,23.2069568634033,24.3049259185791,25.7620754241943,27.2638721466064,27.9675407409668
"GBR","NQ3","Eel Reef North",-12.40092,143.37201,9.98999977111816,2.60999989509583,28.8501949310303,28.6475658416748,28.3627185821533,27.5216846466064,26.2125511169434,25.0912456512451,24.2190113067627,24.0531768798828,24.87548828125,26.0844917297363,27.5539989471436,28.5848159790039
"GBR","QLD100","Murray Channel",-9.95826,144.15061,6.84999990463257,2.27999997138977,28.2983264923096,28.2679424285889,28.1101760864258,27.6713256835938,26.9636383056641,26.0117263793945,25.159875869751,24.8675193786621,25.2320518493652,26.0967025756836,27.1527366638184,28.0992698669434
"GBR","QLD103","Waier Island",-9.9513,144.03178,3.17999982833862,2.10999989509583,28.3759498596191,28.3061695098877,28.0893459320068,27.7221336364746,27.0202941894531,26.0436763763428,25.1754856109619,24.8828659057617,25.2418842315674,26.1122817993164,27.1908073425293,28.1533107757568
"GBR","QLD105","The Maze Channel",-10.06687,143.86969,2.86999988555908,2.21000003814697,28.506326675415,28.3550643920898,28.1185207366943,27.7506866455078,27.0271606445312,26.0230026245117,25.138521194458,24.8422203063965,25.226318359375,26.1297950744629,27.2360725402832,28.2432136535645
"GBR","QLD106","The Maze Anchorage",-10.0696,143.87544,2.86999988555908,2.21000003814697,28.506326675415,28.3550643920898,28.1185207366943,27.7506866455078,27.0271606445312,26.0230026245117,25.138521194458,24.8422203063965,25.226318359375,26.1297950744629,27.2360725402832,28.2432136535645
"GBR","QLD110","Round Maze",-10.0599,143.883,2.86999988555908,2.21000003814697,28.506326675415,28.3550643920898,28.1185207366943,27.7506866455078,27.0271606445312,26.0230026245117,25.138521194458,24.8422203063965,25.226318359375,26.1297950744629,27.2360725402832,28.2432136535645
"GBR","QLD112","Dugong Island",-10.52274,143.09259,10.6999998092651,2.61999988555908,29.0441188812256,28.8670024871826,28.472562789917,27.9645690917969,27.0040340423584,25.821756362915,24.8901767730713,24.603084564209,25.2915630340576,26.3613967895508,27.8427753448486,28.8516120910645
"GBR","QLD15","Clam Bay",-23.18711,150.98134,0.519999980926514,2.22000002861023,27.385892868042,27.4721527099609,26.3579845428467,24.9821300506592,23.0847721099854,20.9874477386475,19.6416721343994,19.6075782775879,21.1198768615723,23.21116065979,24.9813041687012,26.3920993804932
"GBR","QLD18","Alcyonaria Point",-20.06494,148.92328,3.3199999332428,2.27999997138977,27.9265613555908,28.1780433654785,27.5471286773682,26.4511756896973,24.9751243591309,23.005651473999,21.8818855285645,21.8535652160645,22.8900585174561,24.5882225036621,26.2491359710693,27.2698917388916
"GBR","QLD20","Blue Pearl Bay",-20.04033,148.88061,3.35999989509583,2.30999994277954,27.9787540435791,28.2099895477295,27.5785140991211,26.4961891174316,25.0202674865723,23.0645694732666,21.9455337524414,21.9128665924072,22.9537181854248,24.6422443389893,26.2935733795166,27.314826965332
"GBR","QLD46","Blue Lagoon Channel",-14.68717,145.46565,8.60999965667725,2.57999992370605,28.4683494567871,28.5663146972656,28.0623970031738,27.0808982849121,25.8601169586182,24.5609970092773,23.8247661590576,23.7489433288574,24.4890441894531,25.6730995178223,27.0268840789795,27.9031887054443
"GBR","QLD47","Horseshoe Reef",-14.68708,145.44327,8.63000011444092,2.60999989509583,28.4965686798096,28.5836009979248,28.0559101104736,27.0579051971436,25.7976741790771,24.4481029510498,23.7022800445557,23.660005569458,24.4558410644531,25.68772315979,27.0568180084229,27.9223041534424
"GBR","QLD50","Osprey Island",-14.66541,145.44227,8.63000011444092,2.60999989509583,28.4965686798096,28.5836009979248,28.0559101104736,27.0579051971436,25.7976741790771,24.4481029510498,23.7022800445557,23.660005569458,24.4558410644531,25.68772315979,27.0568180084229,27.9223041534424
"GBR","QLD51","Watsons Bay north",-14.65706,145.45076,8.60999965667725,2.57999992370605,28.4683494567871,28.5663146972656,28.0623970031738,27.0808982849121,25.8601169586182,24.5609970092773,23.8247661590576,23.7489433288574,24.4890441894531,25.6730995178223,27.0268840789795,27.9031887054443
"GBR","QLD52","Watsons-Turtle Reef",-14.65528,145.45049,8.60999965667725,2.57999992370605,28.4683494567871,28.5663146972656,28.0623970031738,27.0808982849121,25.8601169586182,24.5609970092773,23.8247661590576,23.7489433288574,24.4890441894531,25.6730995178223,27.0268840789795,27.9031887054443
"GBR","QLD54","Cobia Hole",-14.65101,145.44851,8.63000011444092,2.60999989509583,28.4965686798096,28.5836009979248,28.0559101104736,27.0579051971436,25.7976741790771,24.4481029510498,23.7022800445557,23.660005569458,24.4558410644531,25.68772315979,27.0568180084229,27.9223041534424
"GBR","QLD55","Mermaid Cove north",-14.6461,145.45386,9.51000022888184,2.52999997138977,28.4495620727539,28.5656452178955,28.0688419342041,27.1050891876221,25.8992710113525,24.6244201660156,23.9037170410156,23.8173446655273,24.5283260345459,25.675760269165,27.0107936859131,27.9054660797119
"GBR","QLD57","Mermaid dropoff north",-14.64524,145.45471,9.51000022888184,2.52999997138977,28.4495620727539,28.5656452178955,28.0688419342041,27.1050891876221,25.8992710113525,24.6244201660156,23.9037170410156,23.8173446655273,24.5283260345459,25.675760269165,27.0107936859131,27.9054660797119
"GBR","QLD60","Chicken Reef",-18.66084,147.70284,4.09999990463257,2.19000005722046,28.219425201416,28.3665981292725,27.8079032897949,26.9026527404785,25.7285919189453,24.2557640075684,23.4298458099365,23.3378849029541,24.0339603424072,25.2774467468262,26.5965194702148,27.5537872314453
"GBR","QLD61","Chicken Reef East",-18.661726,147.723103,4.09999990463257,2.19000005722046,28.219425201416,28.3665981292725,27.8079032897949,26.9026527404785,25.7285919189453,24.2557640075684,23.4298458099365,23.3378849029541,24.0339603424072,25.2774467468262,26.5965194702148,27.5537872314453
"GBR","QLD62","Chicken Reef NW",-18.65153,147.70988,4.09999990463257,2.19000005722046,28.219425201416,28.3665981292725,27.8079032897949,26.9026527404785,25.7285919189453,24.2557640075684,23.4298458099365,23.3378849029541,24.0339603424072,25.2774467468262,26.5965194702148,27.5537872314453
"GBR","QLD7","Monkey Point",-23.1957,150.937484,0.529999971389771,2.1800000667572,27.4223499298096,27.4852638244629,26.3460636138916,24.953893661499,23.0161151885986,20.9042434692383,19.5512866973877,19.5521831512451,21.1596488952637,23.2713279724121,25.0458393096924,26.4299297332764
"GBR","QLD72","Swains SE",-22.38397,152.5349,0.319999992847443,1.62999999523163,27.3538055419922,27.5619640350342,26.9024829864502,26.0466194152832,24.8390140533447,23.4045124053955,22.2300224304199,21.7080574035645,22.2142601013184,23.7119693756104,25.1566066741943,26.4139251708984
"Ningaloo","NMP-BF1","Bundegi",-21.83921,114.17564,0,3.70999979972839,25.7485866546631,27.2074909210205,27.9541244506836,27.7399730682373,26.4254970550537,24.8199882507324,23.5208320617676,22.5041980743408,22.5462684631348,22.6669845581055,23.4726123809814,24.3506183624268
"Ningaloo","NMP-BF2","Bundegi SZ North",-21.85245,114.16954,0,3.62999987602234,25.8972854614258,27.299840927124,28.0034484863281,27.6303462982178,26.2059173583984,24.5960884094238,23.2966861724854,22.2448196411133,22.3173923492432,22.586555480957,23.488353729248,24.4447784423828
"Ningaloo","NMP-BF3","Bundegi SZ South",-21.86648,114.15926,0,3.62999987602234,25.8972854614258,27.299840927124,28.0034484863281,27.6303462982178,26.2059173583984,24.5960884094238,23.2966861724854,22.2448196411133,22.3173923492432,22.586555480957,23.488353729248,24.4447784423828
"Ningaloo","NMP-BF4","Bundegi RZ",-21.83633,114.17777,0,3.70999979972839,25.7485866546631,27.2074909210205,27.9541244506836,27.7399730682373,26.4254970550537,24.8199882507324,23.5208320617676,22.5041980743408,22.5462684631348,22.6669845581055,23.4726123809814,24.3506183624268
"Ningaloo","NMP-C1","Monck Head",-23.17701,113.75987,0,2.61999988555908,24.2320499420166,25.6939525604248,26.5318927764893,26.6999359130859,26.1312198638916,24.6775016784668,23.3759136199951,22.2768535614014,21.9447708129883,21.7855682373047,22.4759082794189,23.0575828552246
"Ningaloo","NMP-C3","Coral Bay Central",-23.14152,113.75364,0,2.69000005722046,24.2714138031006,25.7534656524658,26.5876636505127,26.7581272125244,26.1825618743896,24.7161483764648,23.4152545928955,22.3181381225586,21.9813480377197,21.8252544403076,22.5161552429199,23.1079292297363
"Ningaloo","NMP-C4","Yalobia Passage",-23.19995,113.76354,0,2.61999988555908,24.2320499420166,25.6939525604248,26.5318927764893,26.6999359130859,26.1312198638916,24.6775016784668,23.3759136199951,22.2768535614014,21.9447708129883,21.7855682373047,22.4759082794189,23.0575828552246
"Ningaloo","NMP-P2","Pelican Nth",-23.31925,113.7807,0,2.5,24.1364040374756,25.5563488006592,26.3814086914062,26.5330905914307,25.9831104278564,24.5622596740723,23.2478561401367,22.1506309509277,21.8277187347412,21.6845378875732,22.3675746917725,22.9511623382568
"Ningaloo","NMP-S1","Dugong",-22.86905,113.76443,0,3,24.4365100860596,25.9769859313965,26.8194522857666,27.0005893707275,26.4066829681396,24.8788604736328,23.5741405487061,22.501781463623,22.144552230835,22.0095615386963,22.6940841674805,23.3197154998779
"Ningaloo","NMP-S2","Bruboodjoo",-22.92875,113.77937,0,2.89999985694885,24.4081935882568,25.9403896331787,26.7723121643066,26.9465312957764,26.3558673858643,24.838249206543,23.5355682373047,22.4544696807861,22.1037883758545,21.971700668335,22.6617984771729,23.2848033905029
"Ningaloo","NMP-S3","Coral Bay DEC1",-23.12872,113.75232,0,2.69000005722046,24.2714138031006,25.7534656524658,26.5876636505127,26.7581272125244,26.1825618743896,24.7161483764648,23.4152545928955,22.3181381225586,21.9813480377197,21.8252544403076,22.5161552429199,23.1079292297363
"Ningaloo","NMP-S4","Pelican",-23.33246,113.77923,0,2.5,24.1364040374756,25.5563488006592,26.3814086914062,26.5330905914307,25.9831104278564,24.5622596740723,23.2478561401367,22.1506309509277,21.8277187347412,21.6845378875732,22.3675746917725,22.9511623382568
"Ningaloo","NMP1","Point Maud Outer",-23.11234,113.75042,0,2.69000005722046,24.2714138031006,25.7534656524658,26.5876636505127,26.7581272125244,26.1825618743896,24.7161483764648,23.4152545928955,22.3181381225586,21.9813480377197,21.8252544403076,22.5161552429199,23.1079292297363
"Ningaloo","NMP10","Maud RZ1",-23.21313,113.76296,0,2.50999999046326,24.2003898620605,25.6432247161865,26.4799556732178,26.6408958435059,26.0784473419189,24.6354103088379,23.3314075469971,22.2333316802979,21.9056167602539,21.7515296936035,22.4405040740967,23.0175895690918
"Ningaloo","NMP11","Maud RZ2",-23.20838,113.76328,0,2.50999999046326,24.2003898620605,25.6432247161865,26.4799556732178,26.6408958435059,26.0784473419189,24.6354103088379,23.3314075469971,22.2333316802979,21.9056167602539,21.7515296936035,22.4405040740967,23.0175895690918
"Ningaloo","NMP13","Monck Head Inner",-23.17989,113.76169,0,2.61999988555908,24.2320499420166,25.6939525604248,26.5318927764893,26.6999359130859,26.1312198638916,24.6775016784668,23.3759136199951,22.2768535614014,21.9447708129883,21.7855682373047,22.4759082794189,23.0575828552246
"Ningaloo","NMP14","Monck Head North",-23.17758,113.76397,0,2.61999988555908,24.2320499420166,25.6939525604248,26.5318927764893,26.6999359130859,26.1312198638916,24.6775016784668,23.3759136199951,22.2768535614014,21.9447708129883,21.7855682373047,22.4759082794189,23.0575828552246
"Ningaloo","NMP19","Maud SZ Nth",-23.09197,113.73966,0,2.73000001907349,24.3021621704102,25.7962951660156,26.6364364624023,26.8224868774414,26.2396621704102,24.7677211761475,23.4589023590088,22.36474609375,22.0251922607422,21.8635234832764,22.5534820556641,23.1478252410889
"Ningaloo","NMP2","Point Maud Inner",-23.12142,113.75562,0,2.69000005722046,24.2714138031006,25.7534656524658,26.5876636505127,26.7581272125244,26.1825618743896,24.7161483764648,23.4152545928955,22.3181381225586,21.9813480377197,21.8252544403076,22.5161552429199,23.1079292297363
"Ningaloo","NMP20","Oyster rocks buoy",-23.04473,113.81843,0,2.86999988555908,24.3518390655518,25.8631687164307,26.6828727722168,26.8389701843262,26.2548427581787,24.7579765319824,23.4628944396973,22.3702507019043,22.028470993042,21.8965873718262,22.5928039550781,23.2062301635742
"Ningaloo","NMP21","Coral Bay (Sanctuary zone)",-23.14221,113.76709,0,2.69000005722046,24.2714138031006,25.7534656524658,26.5876636505127,26.7581272125244,26.1825618743896,24.7161483764648,23.4152545928955,22.3181381225586,21.9813480377197,21.8252544403076,22.5161552429199,23.1079292297363
"Ningaloo","NMP24","Yalobia Bommie",-23.20194,113.76248,0,2.50999999046326,24.2003898620605,25.6432247161865,26.4799556732178,26.6408958435059,26.0784473419189,24.6354103088379,23.3314075469971,22.2333316802979,21.9056167602539,21.7515296936035,22.4405040740967,23.0175895690918
"Ningaloo","NMP25","Outside Yalobia North",-23.19459,113.75209,0,2.61999988555908,24.2320499420166,25.6939525604248,26.5318927764893,26.6999359130859,26.1312198638916,24.6775016784668,23.3759136199951,22.2768535614014,21.9447708129883,21.7855682373047,22.4759082794189,23.0575828552246
"Ningaloo","NMP26","Outside Yalobia South",-23.2175,113.75466,0,2.50999999046326,24.2003898620605,25.6432247161865,26.4799556732178,26.6408958435059,26.0784473419189,24.6354103088379,23.3314075469971,22.2333316802979,21.9056167602539,21.7515296936035,22.4405040740967,23.0175895690918
"Ningaloo","NMP27","Coral Bay Offshore",-23.13496,113.7404,0,2.66999983787537,24.2668285369873,25.7461700439453,26.5907936096191,26.7696208953857,26.193510055542,24.7320232391357,23.4248237609863,22.3289184570312,21.9939060211182,21.8280696868896,22.5166206359863,23.1035118103027
"Ningaloo","NMP28","Cardabia Patch",-23.098,113.79429,0,2.75999999046326,24.309534072876,25.8072814941406,26.6350212097168,26.8048534393311,26.2242679595947,24.745491027832,23.4450588226318,22.3495712280273,22.0097274780273,21.8621349334717,22.5546932220459,23.1562194824219
"Ningaloo","NMP29","Monck Wall",-23.16925,113.75708,0,2.61999988555908,24.2320499420166,25.6939525604248,26.5318927764893,26.6999359130859,26.1312198638916,24.6775016784668,23.3759136199951,22.2768535614014,21.9447708129883,21.7855682373047,22.4759082794189,23.0575828552246
"Ningaloo","NMP30","Oyster rocks south",-23.04801,113.81886,0,2.86999988555908,24.3518390655518,25.8631687164307,26.6828727722168,26.8389701843262,26.2548427581787,24.7579765319824,23.4628944396973,22.3702507019043,22.028470993042,21.8965873718262,22.5928039550781,23.2062301635742
"Ningaloo","NMP31","Yalobia South",-23.206149,113.760286,0,2.50999999046326,24.2003898620605,25.6432247161865,26.4799556732178,26.6408958435059,26.0784473419189,24.6354103088379,23.3314075469971,22.2333316802979,21.9056167602539,21.7515296936035,22.4405040740967,23.0175895690918
"Ningaloo","NMP32","Monck Bowl",-23.16465,113.75582,0,2.61999988555908,24.2320499420166,25.6939525604248,26.5318927764893,26.6999359130859,26.1312198638916,24.6775016784668,23.3759136199951,22.2768535614014,21.9447708129883,21.7855682373047,22.4759082794189,23.0575828552246
"Ningaloo","NMP6","Monck Head Outer",-23.16108,113.75875,0,2.61999988555908,24.2320499420166,25.6939525604248,26.5318927764893,26.6999359130859,26.1312198638916,24.6775016784668,23.3759136199951,22.2768535614014,21.9447708129883,21.7855682373047,22.4759082794189,23.0575828552246
"Ningaloo","NMP8","Maud SZ external",-23.17642,113.76097,0,2.61999988555908,24.2320499420166,25.6939525604248,26.5318927764893,26.6999359130859,26.1312198638916,24.6775016784668,23.3759136199951,22.2768535614014,21.9447708129883,21.7855682373047,22.4759082794189,23.0575828552246
"Ningaloo","NMP9","Bills Bay 1",-23.12627,113.76158,0,2.69000005722046,24.2714138031006,25.7534656524658,26.5876636505127,26.7581272125244,26.1825618743896,24.7161483764648,23.4152545928955,22.3181381225586,21.9813480377197,21.8252544403076,22.5161552429199,23.1079292297363
"NW","NWS1","Vulcan Shoal",-12.8034,124.2757,17.6599998474121,2.30999994277954,29.4334583282471,29.3941230773926,29.2658786773682,29.4203796386719,28.9105072021484,27.8181476593018,26.640588760376,26.3353042602539,27.2644176483154,28.4903392791748,29.4896717071533,29.3415699005127
"NW","NWS10","Rogaa Bommie",-11.97452,123.32136,15.9499998092651,2.36999988555908,29.4173412322998,29.2684574127197,29.1632804870605,29.1384410858154,28.6469478607178,27.7150535583496,26.6886672973633,26.4362850189209,27.1565895080566,28.445629119873,29.4148712158203,29.3190898895264
"NW","NWS100","Clerke east reef top C28",-17.29965,119.37575,6.89999961853027,2.75,29.1707057952881,29.1162567138672,29.6743717193604,29.6695003509521,28.3705959320068,27.2291603088379,25.8005828857422,25.111837387085,25.6001224517822,26.5028381347656,27.687536239624,28.3617515563965
"NW","NWS101","Clerke Reef - BnB",-17.35516,119.38393,6.94000005722046,2.91999983787537,29.1569709777832,29.1397323608398,29.6807613372803,29.6505603790283,28.3409633636475,27.2106819152832,25.7655429840088,25.0710334777832,25.5533599853516,26.4653282165527,27.6459331512451,28.3252277374268
"NW","NWS102","Clerke SE reef top C27",-17.3139,119.37816,6.83999967575073,2.83999991416931,29.1633358001709,29.1263885498047,29.6757507324219,29.6591548919678,28.3540668487549,27.2190341949463,25.7825546264648,25.09033203125,25.575719833374,26.4822158813477,27.6671466827393,28.3438167572021
"NW","NWS11","Hibernia Lagoon SW",-11.98059,123.33523,15.9499998092651,2.36999988555908,29.4173412322998,29.2684574127197,29.1632804870605,29.1384410858154,28.6469478607178,27.7150535583496,26.6886672973633,26.4362850189209,27.1565895080566,28.445629119873,29.4148712158203,29.3190898895264
"NW","NWS12","Hibernia Lagoon NW",-11.97626,123.33757,15.9499998092651,2.36999988555908,29.4173412322998,29.2684574127197,29.1632804870605,29.1384410858154,28.6469478607178,27.7150535583496,26.6886672973633,26.4362850189209,27.1565895080566,28.445629119873,29.4148712158203,29.3190898895264
"NW","NWS13","Golden Sleeper Corner",-11.9834,123.3271,15.9499998092651,2.36999988555908,29.4173412322998,29.2684574127197,29.1632804870605,29.1384410858154,28.6469478607178,27.7150535583496,26.6886672973633,26.4362850189209,27.1565895080566,28.445629119873,29.4148712158203,29.3190898895264
"NW","NWS14","Surge Crest East",-12.217,123.00392,13.5999994277954,2.28999996185303,29.4447650909424,29.2929801940918,29.1881332397461,29.1181144714355,28.6344337463379,27.7140350341797,26.6300506591797,26.3982467651367,27.1319999694824,28.4013652801514,29.4175777435303,29.3606243133545
"NW","NWS15","Surge Crest West",-12.2159,123.00575,13.5999994277954,2.28999996185303,29.4447650909424,29.2929801940918,29.1881332397461,29.1181144714355,28.6344337463379,27.7140350341797,26.6300506591797,26.3982467651367,27.1319999694824,28.4013652801514,29.4175777435303,29.3606243133545
"NW","NWS16","Guardian Reef",-12.23963,122.98389,13.5999994277954,2.27999997138977,29.4542388916016,29.2965221405029,29.1951179504395,29.1251316070557,28.6378803253174,27.7167205810547,26.6370658874512,26.4033737182617,27.1354179382324,28.408390045166,29.4267978668213,29.3709602355957
"NW","NWS163","Berthier Island",-14.49741,124.99591,8.73999977111816,2.64999985694885,29.4851455688477,29.338098526001,29.3623447418213,29.6248950958252,29.1813411712646,27.836856842041,26.287317276001,25.9271125793457,26.8837776184082,27.9690036773682,29.0027828216553,29.0170841217041
"NW","NWS164","White Island bommie",-15.0667,124.33321,11.5999994277954,2.57999992370605,29.5127754211426,29.56764793396,29.5586700439453,29.8066959381104,29.369701385498,28.0275993347168,26.4488964080811,26.0037822723389,26.6618518829346,27.7286529541016,29.0060901641846,29.1328506469727
"NW","NWS165","Brue Reef North East",-15.92443,123.04739,5.65000009536743,2.57999992370605,29.305362701416,29.378511428833,29.6569938659668,29.9174346923828,29.2861671447754,27.8169059753418,25.9096660614014,25.2736377716064,25.8767566680908,26.9998455047607,28.374267578125,28.7296600341797
"NW","NWS166","Brue Reef",-15.92278,123.04187,5.65000009536743,2.57999992370605,29.305362701416,29.378511428833,29.6569938659668,29.9174346923828,29.2861671447754,27.8169059753418,25.9096660614014,25.2736377716064,25.8767566680908,26.9998455047607,28.374267578125,28.7296600341797
"NW","NWS167","Frost Shoal",-15.7837,123.35675,8.44999980926514,2.5,0,0,0,0,0,0,0,0,0,0,0,0
"NW","NWS168","Churchill Reef South East",-15.51735,123.23433,3.1399998664856,2.36999988555908,29.1898918151855,29.2287788391113,29.2884941101074,29.6485576629639,29.203685760498,28.0266799926758,26.4216690063477,25.8123989105225,26.32204246521,27.1938209533691,28.3419380187988,28.5911197662354
"NW","NWS169","Chruchill Reef South West",-15.51897,123.26715,3.23000001907349,2.3199999332428,29.2166614532471,29.2670516967773,29.3073463439941,29.6629276275635,29.2142543792725,28.0158061981201,26.3999176025391,25.8098163604736,26.3250904083252,27.2047920227051,28.359167098999,28.6230640411377
"NW","NWS17","Turtle Patch",-12.24179,122.99063,13.5999994277954,2.27999997138977,29.4542388916016,29.2965221405029,29.1951179504395,29.1251316070557,28.6378803253174,27.7167205810547,26.6370658874512,26.4033737182617,27.1354179382324,28.408390045166,29.4267978668213,29.3709602355957
"NW","NWS170","Churchill Reef North West",-15.45017,123.24475,3.11999988555908,2.37999987602234,29.1594657897949,29.1784152984619,29.2514629364014,29.6176853179932,29.192081451416,28.0514869689941,26.4766693115234,25.861364364624,26.3665218353271,27.2149219512939,28.3282871246338,28.5549163818359
"NW","NWS171","Churchill Reef North",-15.44617,123.25202,4.05999994277954,2.33999991416931,29.1554985046387,29.1658878326416,29.2334079742432,29.6006317138672,29.1973342895508,28.0699787139893,26.5106372833252,25.9052448272705,26.4075031280518,27.2415637969971,28.3262119293213,28.5424194335938
"NW","NWS172","Scott Outside anchorage",-14.07044,121.97364,16.5599994659424,2.49000000953674,29.601448059082,29.2832355499268,29.416410446167,29.5654220581055,28.9593048095703,27.8067741394043,26.6361045837402,26.226993560791,26.9670581817627,28.05837059021,29.1795558929443,29.183801651001
"NW","NWS173","Shawrie's Folly",-14.12994,121.96976,16.5399990081787,2.47000002861023,29.5979804992676,29.2822322845459,29.4283847808838,29.5741310119629,28.9661903381348,27.8214263916016,26.6419200897217,26.2229080200195,26.9560089111328,28.0511665344238,29.1734409332275,29.1691474914551
"NW","NWS174","North Scott Lagoon",-13.92629,121.90265,17.1700000762939,2.52999997138977,29.6222305297852,29.2993564605713,29.386474609375,29.5457248687744,28.9312915802002,27.7694301605225,26.6302433013916,26.2320022583008,26.9974040985107,28.0961761474609,29.1994285583496,29.2360229492188
"NW","NWS175","North Reef bommies",-13.91925,121.91215,17.1700000762939,2.52999997138977,29.6222305297852,29.2993564605713,29.386474609375,29.5457248687744,28.9312915802002,27.7694301605225,26.6302433013916,26.2320022583008,26.9974040985107,28.0961761474609,29.1994285583496,29.2360229492188
"NW","NWS176","Shackle Reef",-13.62454,122.00576,16.9499988555908,2.40999984741211,29.6583576202393,29.3385429382324,29.3623352050781,29.5001792907715,28.9024791717529,27.7438735961914,26.6654949188232,26.2794799804688,27.0668048858643,28.1912956237793,29.2730484008789,29.3072128295898
"NW","NWS177","Seringapatam channel north",-13.6323,122.02215,16.9499988555908,2.40999984741211,29.6583576202393,29.3385429382324,29.3623352050781,29.5001792907715,28.9024791717529,27.7438735961914,26.6654949188232,26.2794799804688,27.0668048858643,28.1912956237793,29.2730484008789,29.3072128295898
"NW","NWS178","Ashmore Central Lagoon Entrance",-12.19673,123.04095,13.8999996185303,2.29999995231628,29.4389591217041,29.2808132171631,29.180383682251,29.1103076934814,28.6250305175781,27.7069625854492,26.637622833252,26.4047012329102,27.1377773284912,28.4062156677246,29.4213695526123,29.3528308868408
"NW","NWS179","Not Much Reef",-12.20716,123.04288,13.5999994277954,2.28999996185303,29.4447650909424,29.2929801940918,29.1881332397461,29.1181144714355,28.6344337463379,27.7140350341797,26.6300506591797,26.3982467651367,27.1319999694824,28.4013652801514,29.4175777435303,29.3606243133545
"NW","NWS18","Busy Bommie",-12.241222,122.984927,13.5999994277954,2.27999997138977,29.4542388916016,29.2965221405029,29.1951179504395,29.1251316070557,28.6378803253174,27.7167205810547,26.6370658874512,26.4033737182617,27.1354179382324,28.408390045166,29.4267978668213,29.3709602355957
"NW","NWS180","Grubfish Reef",-12.21192,123.05053,13.6799993515015,2.28999996185303,29.438289642334,29.2905082702637,29.1823654174805,29.1118564605713,28.6316699981689,27.7111797332764,26.6230278015137,26.3923511505127,27.1290702819824,28.3959465026855,29.4098739624023,29.353630065918
"NW","NWS181","Ashmore East Lagoon",-12.18941,123.07672,14.25,2.28999996185303,29.4316234588623,29.2778244018555,29.1757431030273,29.1064128875732,28.6231002807617,27.7046756744385,26.6312732696533,26.3988475799561,27.1349716186523,28.4010639190674,29.4129543304443,29.3447074890137
"NW","NWS182","Ashmore Outer North",-12.17455,123.05939,14.25,2.28999996185303,29.4316234588623,29.2778244018555,29.1757431030273,29.1064128875732,28.6231002807617,27.7046756744385,26.6312732696533,26.3988475799561,27.1349716186523,28.4010639190674,29.4129543304443,29.3447074890137
"NW","NWS183","Ashmore Inner North",-12.17552,123.06644,14.25,2.28999996185303,29.4316234588623,29.2778244018555,29.1757431030273,29.1064128875732,28.6231002807617,27.7046756744385,26.6312732696533,26.3988475799561,27.1349716186523,28.4010639190674,29.4129543304443,29.3447074890137
"NW","NWS184","Ashmore East Lagoon Entrance",-12.17905,123.07097,14.25,2.28999996185303,29.4316234588623,29.2778244018555,29.1757431030273,29.1064128875732,28.6231002807617,27.7046756744385,26.6312732696533,26.3988475799561,27.1349716186523,28.4010639190674,29.4129543304443,29.3447074890137
"NW","NWS185","Northwest Ashmore",-12.18477,123.11123,14.6099996566772,2.27999997138977,29.4272117614746,29.2765464782715,29.1725006103516,29.1040115356445,28.6227931976318,27.703369140625,26.6262893676758,26.3937301635742,27.1337890625,28.3968181610107,29.4047412872314,29.3382911682129
"NW","NWS186","Cartier North",-12.52576,123.57526,14.3599996566772,2.28999996185303,29.5087356567383,29.3569660186768,29.2252941131592,29.2413845062256,28.743745803833,27.748363494873,26.6295318603516,26.3411293029785,27.1627559661865,28.437198638916,29.4513339996338,29.4065055847168
"NW","NWS187","Cartier Reef Slope",-12.53478,123.57985,14.3599996566772,2.28999996185303,29.5087356567383,29.3569660186768,29.2252941131592,29.2413845062256,28.743745803833,27.748363494873,26.6295318603516,26.3411293029785,27.1627559661865,28.437198638916,29.4513339996338,29.4065055847168
"NW","NWS188","Cartier Platform",-12.52658,123.57827,14.3599996566772,2.28999996185303,29.5087356567383,29.3569660186768,29.2252941131592,29.2413845062256,28.743745803833,27.748363494873,26.6295318603516,26.3411293029785,27.1627559661865,28.437198638916,29.4513339996338,29.4065055847168
"NW","NWS189","Cartier Garden",-12.52527,123.57215,14.3599996566772,2.28999996185303,29.5087356567383,29.3569660186768,29.2252941131592,29.2413845062256,28.743745803833,27.748363494873,26.6295318603516,26.3411293029785,27.1627559661865,28.437198638916,29.4513339996338,29.4065055847168
"NW","NWS19","Grand Oculis Bommie",-12.240542,122.983286,13.5999994277954,2.27999997138977,29.4542388916016,29.2965221405029,29.1951179504395,29.1251316070557,28.6378803253174,27.7167205810547,26.6370658874512,26.4033737182617,27.1354179382324,28.408390045166,29.4267978668213,29.3709602355957
"NW","NWS190","Nuclear Bommie",-12.52495,123.56892,14.3599996566772,2.28999996185303,29.5087356567383,29.3569660186768,29.2252941131592,29.2413845062256,28.743745803833,27.748363494873,26.6295318603516,26.3411293029785,27.1627559661865,28.437198638916,29.4513339996338,29.4065055847168
"NW","NWS191","Unexploded Bommie",-12.5245,123.56482,14.3599996566772,2.28999996185303,29.5087356567383,29.3569660186768,29.2252941131592,29.2413845062256,28.743745803833,27.748363494873,26.6295318603516,26.3411293029785,27.1627559661865,28.437198638916,29.4513339996338,29.4065055847168
"NW","NWS192","Cartier Anchorage",-12.52689,123.58274,14.3599996566772,2.28999996185303,29.5087356567383,29.3569660186768,29.2252941131592,29.2413845062256,28.743745803833,27.748363494873,26.6295318603516,26.3411293029785,27.1627559661865,28.437198638916,29.4513339996338,29.4065055847168
"NW","NWS193","Cartier Island",-12.52436,123.56101,14.3599996566772,2.28999996185303,29.5087356567383,29.3569660186768,29.2252941131592,29.2413845062256,28.743745803833,27.748363494873,26.6295318603516,26.3411293029785,27.1627559661865,28.437198638916,29.4513339996338,29.4065055847168
"NW","NWS194","Browse Ledge",-14.10193,123.5508,13.9799995422363,2.85999989509583,29.3995227813721,29.1902637481689,29.223087310791,29.5144844055176,29.049711227417,27.8894100189209,26.6883926391602,26.3047924041748,26.9949474334717,28.0278587341309,29.0829086303711,29.0741996765137
"NW","NWS195","Browse Fats",-14.10958,123.55655,13.9799995422363,2.85999989509583,29.3995227813721,29.1902637481689,29.223087310791,29.5144844055176,29.049711227417,27.8894100189209,26.6883926391602,26.3047924041748,26.9949474334717,28.0278587341309,29.0829086303711,29.0741996765137
"NW","NWS196","Browse Anchorage",-14.1045,123.55491,13.9799995422363,2.85999989509583,29.3995227813721,29.1902637481689,29.223087310791,29.5144844055176,29.049711227417,27.8894100189209,26.6883926391602,26.3047924041748,26.9949474334717,28.0278587341309,29.0829086303711,29.0741996765137
"NW","NWS197","Groper Reef",-14.05661,125.35585,12.4499998092651,2.6399998664856,0,0,0,0,0,0,0,0,0,0,0,0
"NW","NWS198","Jameson Reef Anchorage",-14.05545,125.3604,12.4499998092651,2.6399998664856,0,0,0,0,0,0,0,0,0,0,0,0
"NW","NWS199","Cassini Point",-13.94304,125.64153,8.53999996185303,2.55999994277954,29.5251541137695,29.3936614990234,29.3291358947754,29.6509647369385,29.0190372467041,27.3710842132568,25.7419834136963,25.6714019775391,26.9135398864746,28.2198104858398,29.2640552520752,29.1308002471924
"NW","NWS2","Barracouta Shoal",-12.5583,124.0382,16.7700004577637,2.28999996185303,29.4437065124512,29.3849468231201,29.2235908508301,29.3163738250732,28.8173141479492,27.7744693756104,26.6583728790283,26.3605308532715,27.202033996582,28.4877643585205,29.4840888977051,29.3896770477295
"NW","NWS20","Flat's Edge",-12.24414,123.00182,13.5999994277954,2.28999996185303,29.4447650909424,29.2929801940918,29.1881332397461,29.1181144714355,28.6344337463379,27.7140350341797,26.6300506591797,26.3982467651367,27.1319999694824,28.4013652801514,29.4175777435303,29.3606243133545
"NW","NWS200","Cassini anchorage",-13.94105,125.63595,8.53999996185303,2.55999994277954,29.5251541137695,29.3936614990234,29.3291358947754,29.6509647369385,29.0190372467041,27.3710842132568,25.7419834136963,25.6714019775391,26.9135398864746,28.2198104858398,29.2640552520752,29.1308002471924
"NW","NWS201","Lesueur Island South",-13.82453,127.2726,6.59999990463257,2.25999999046326,29.5605888366699,29.5535011291504,29.5631141662598,29.7184181213379,28.9119243621826,27.2342052459717,25.521427154541,25.3964176177979,26.5287818908691,27.733003616333,28.9406452178955,29.0164604187012
"NW","NWS21","Hemiplage Bommie",-12.24405,122.99881,13.5999994277954,2.27999997138977,29.4542388916016,29.2965221405029,29.1951179504395,29.1251316070557,28.6378803253174,27.7167205810547,26.6370658874512,26.4033737182617,27.1354179382324,28.408390045166,29.4267978668213,29.3709602355957
"NW","NWS22","Dotty Reef",-12.241092,122.986398,13.5999994277954,2.27999997138977,29.4542388916016,29.2965221405029,29.1951179504395,29.1251316070557,28.6378803253174,27.7167205810547,26.6370658874512,26.4033737182617,27.1354179382324,28.408390045166,29.4267978668213,29.3709602355957
"NW","NWS23","Kuhlii Bommie",-12.23384,122.99001,13.5999994277954,2.27999997138977,29.4542388916016,29.2965221405029,29.1951179504395,29.1251316070557,28.6378803253174,27.7167205810547,26.6370658874512,26.4033737182617,27.1354179382324,28.408390045166,29.4267978668213,29.3709602355957
"NW","NWS24","Reel Lost Bommie",-12.242641,122.985307,13.5999994277954,2.27999997138977,29.4542388916016,29.2965221405029,29.1951179504395,29.1251316070557,28.6378803253174,27.7167205810547,26.6370658874512,26.4033737182617,27.1354179382324,28.408390045166,29.4267978668213,29.3709602355957
"NW","NWS25","Eviota Bommie",-12.239894,122.986433,13.5999994277954,2.27999997138977,29.4542388916016,29.2965221405029,29.1951179504395,29.1251316070557,28.6378803253174,27.7167205810547,26.6370658874512,26.4033737182617,27.1354179382324,28.408390045166,29.4267978668213,29.3709602355957
"NW","NWS26","Seringapatam North",-13.62389,121.99474,16.7399997711182,2.40999984741211,29.6670398712158,29.3376750946045,29.3651313781738,29.4986457824707,28.8958377838135,27.7424125671387,26.6642360687256,26.278715133667,27.0629062652588,28.195125579834,29.2728080749512,29.3119792938232
"NW","NWS27","Election Day Reef",-14.070388,121.961272,16.5599994659424,2.49000000953674,29.601448059082,29.2832355499268,29.416410446167,29.5654220581055,28.9593048095703,27.8067741394043,26.6361045837402,26.226993560791,26.9670581817627,28.05837059021,29.1795558929443,29.183801651001
"NW","NWS28","Consolation Bommie",-14.1327,121.94218,16.4400005340576,2.42999982833862,29.6021957397461,29.2756805419922,29.4274806976318,29.5735702514648,28.95827293396,27.815975189209,26.6378364562988,26.2176837921143,26.9557189941406,28.0599670410156,29.1708450317383,29.1781673431396
"NW","NWS29","Moray Bommie",-14.12668,121.94546,16.4400005340576,2.42999982833862,29.6021957397461,29.2756805419922,29.4274806976318,29.5735702514648,28.95827293396,27.815975189209,26.6378364562988,26.2176837921143,26.9557189941406,28.0599670410156,29.1708450317383,29.1781673431396
"NW","NWS3","Cardinal Shoal",-11.9719,123.3878,15.9499998092651,2.3899998664856,29.4255294799805,29.2740879058838,29.1638698577881,29.1487426757812,28.652322769165,27.7163619995117,26.6907806396484,26.4344520568848,27.1565685272217,28.448169708252,29.4153461456299,29.3193397521973
"NW","NWS30","Longnose Spur",-14.14184,121.9589,16.5399990081787,2.47000002861023,29.5979804992676,29.2822322845459,29.4283847808838,29.5741310119629,28.9661903381348,27.8214263916016,26.6419200897217,26.2229080200195,26.9560089111328,28.0511665344238,29.1734409332275,29.1691474914551
"NW","NWS31","Napoleon Reef",-14.14383,121.95693,16.5399990081787,2.47000002861023,29.5979804992676,29.2822322845459,29.4283847808838,29.5741310119629,28.9661903381348,27.8214263916016,26.6419200897217,26.2229080200195,26.9560089111328,28.0511665344238,29.1734409332275,29.1691474914551
"NW","NWS32","Goby Heaven",-14.10934,121.96473,16.5399990081787,2.47000002861023,29.5979804992676,29.2822322845459,29.4283847808838,29.5741310119629,28.9661903381348,27.8214263916016,26.6419200897217,26.2229080200195,26.9560089111328,28.0511665344238,29.1734409332275,29.1691474914551
"NW","NWS33","NE Passage",-14.05597,121.95847,16.5599994659424,2.49000000953674,29.601448059082,29.2832355499268,29.416410446167,29.5654220581055,28.9593048095703,27.8067741394043,26.6361045837402,26.226993560791,26.9670581817627,28.05837059021,29.1795558929443,29.183801651001
"NW","NWS34","Table Tip",-14.06257,121.9653,16.5599994659424,2.49000000953674,29.601448059082,29.2832355499268,29.416410446167,29.5654220581055,28.9593048095703,27.8067741394043,26.6361045837402,26.226993560791,26.9670581817627,28.05837059021,29.1795558929443,29.183801651001
"NW","NWS35","Ian's Anchorage",-14.0717,121.95083,16.5599994659424,2.49000000953674,29.601448059082,29.2832355499268,29.416410446167,29.5654220581055,28.9593048095703,27.8067741394043,26.6361045837402,26.226993560791,26.9670581817627,28.05837059021,29.1795558929443,29.183801651001
"NW","NWS36","Fungiid Fields",-14.0747,121.78767,15.8899993896484,2.57999992370605,29.6275672912598,29.2674255371094,29.4194717407227,29.574031829834,28.9385662078857,27.8022994995117,26.6418533325195,26.2174453735352,26.9612216949463,28.0959072113037,29.1809253692627,29.2208709716797
"NW","NWS37","Stake Edge",-14.0453,121.78072,15.9099998474121,2.60999989509583,29.6349048614502,29.2723770141602,29.4089069366455,29.5652656555176,28.9305305480957,27.7900867462158,26.6394805908203,26.221492767334,26.9699020385742,28.1033573150635,29.189733505249,29.2338027954102
"NW","NWS38","Chaetodontoides",-14.06866,121.77651,15.8899993896484,2.57999992370605,29.6275672912598,29.2674255371094,29.4194717407227,29.574031829834,28.9385662078857,27.8022994995117,26.6418533325195,26.2174453735352,26.9612216949463,28.0959072113037,29.1809253692627,29.2208709716797
"NW","NWS39","Odonus Dropoff",-14.0828,121.74816,15.9699993133545,2.64999985694885,29.6346282958984,29.2629108428955,29.4215621948242,29.5800094604492,28.9371814727783,27.8047142028809,26.6501693725586,26.2178745269775,26.9578914642334,28.1053199768066,29.1861305236816,29.23095703125
"NW","NWS4","Titan Reef",-11.969,123.3794,15.9499998092651,2.3899998664856,29.4255294799805,29.2740879058838,29.1638698577881,29.1487426757812,28.652322769165,27.7163619995117,26.6907806396484,26.4344520568848,27.1565685272217,28.448169708252,29.4153461456299,29.3193397521973
"NW","NWS40","Stern Trawler Reef",-14.0785,121.742,15.9699993133545,2.64999985694885,29.6346282958984,29.2629108428955,29.4215621948242,29.5800094604492,28.9371814727783,27.8047142028809,26.6501693725586,26.2178745269775,26.9578914642334,28.1053199768066,29.1861305236816,29.23095703125
"NW","NWS41","Dead West",-14.10823,121.72068,15.7799997329712,2.60999989509583,29.6258201599121,29.2597732543945,29.4330959320068,29.5897941589355,28.9459438323975,27.818244934082,26.6551761627197,26.2135581970215,26.9490852355957,28.0976581573486,29.1768989562988,29.2185611724854
"NW","NWS5","Hibernia Lagoon SE",-11.97961,123.38074,15.9499998092651,2.3899998664856,29.4255294799805,29.2740879058838,29.1638698577881,29.1487426757812,28.652322769165,27.7163619995117,26.6907806396484,26.4344520568848,27.1565685272217,28.448169708252,29.4153461456299,29.3193397521973
"NW","NWS50","Imperieuse SE lagoon",-17.6101,118.97,2.07999992370605,2.87999987602234,29.0093955993652,29.1213569641113,29.6327056884766,29.5414028167725,28.2197265625,27.0744380950928,25.6454982757568,25.0113868713379,25.4163227081299,26.2799377441406,27.3769474029541,28.1735420227051
"NW","NWS51","Imperieuse West Lagoon",-17.6089,118.96364,2.07999992370605,2.87999987602234,29.0093955993652,29.1213569641113,29.6327056884766,29.5414028167725,28.2197265625,27.0744380950928,25.6454982757568,25.0113868713379,25.4163227081299,26.2799377441406,27.3769474029541,28.1735420227051
"NW","NWS52","Imperieuse SE reef edge",-17.6089,118.96364,2.07999992370605,2.87999987602234,29.0093955993652,29.1213569641113,29.6327056884766,29.5414028167725,28.2197265625,27.0744380950928,25.6454982757568,25.0113868713379,25.4163227081299,26.2799377441406,27.3769474029541,28.1735420227051
"NW","NWS53","Imperieuse SE reef top",-17.579,118.96872,2.8199999332428,3,29.0097999572754,29.1138229370117,29.6247367858887,29.5470676422119,28.2347736358643,27.0889892578125,25.6616382598877,25.0286903381348,25.4391613006592,26.2951908111572,27.3898792266846,28.1810073852539
"NW","NWS54","Imperieuse east lagoon",-17.5804,118.9369,1.87999999523163,2.93999981880188,29.0041980743408,29.118824005127,29.6279945373535,29.5424823760986,28.2334079742432,27.0839977264404,25.6662998199463,25.0369396209717,25.4381484985352,26.289005279541,27.3722629547119,28.1770191192627
"NW","NWS55","Imperieuse East",-17.56991,118.97193,2.8199999332428,3,29.0097999572754,29.1138229370117,29.6247367858887,29.5470676422119,28.2347736358643,27.0889892578125,25.6616382598877,25.0286903381348,25.4391613006592,26.2951908111572,27.3898792266846,28.1810073852539
"NW","NWS56","Imperieuse Reef Rage",-17.6102,118.9747,2.07999992370605,2.87999987602234,29.0093955993652,29.1213569641113,29.6327056884766,29.5414028167725,28.2197265625,27.0744380950928,25.6454982757568,25.0113868713379,25.4163227081299,26.2799377441406,27.3769474029541,28.1735420227051
"NW","NWS57","Imperieuse edge",-17.548,118.9737,3.47000002861023,3.04999995231628,29.0137615203857,29.1085567474365,29.6199913024902,29.5576801300049,28.2517547607422,27.1049404144287,25.6790752410889,25.04736328125,25.4647941589355,26.3116416931152,27.4047966003418,28.1911334991455
"NW","NWS58","Rowley Shoals 3",-17.5531,118.9738,2.8199999332428,3,29.0097999572754,29.1138229370117,29.6247367858887,29.5470676422119,28.2347736358643,27.0889892578125,25.6616382598877,25.0286903381348,25.4391613006592,26.2951908111572,27.3898792266846,28.1810073852539
"NW","NWS59","Imperieuse lagoon bommie",-17.54732,118.9668,3.47000002861023,3.04999995231628,29.0137615203857,29.1085567474365,29.6199913024902,29.5576801300049,28.2517547607422,27.1049404144287,25.6790752410889,25.04736328125,25.4647941589355,26.3116416931152,27.4047966003418,28.1911334991455
"NW","NWS6","Hibernia Lagoon SE2",-11.97448,123.38116,15.9499998092651,2.3899998664856,29.4255294799805,29.2740879058838,29.1638698577881,29.1487426757812,28.652322769165,27.7163619995117,26.6907806396484,26.4344520568848,27.1565685272217,28.448169708252,29.4153461456299,29.3193397521973
"NW","NWS60","Imperieuse 14",-17.54749,118.96884,3.47000002861023,3.04999995231628,29.0137615203857,29.1085567474365,29.6199913024902,29.5576801300049,28.2517547607422,27.1049404144287,25.6790752410889,25.04736328125,25.4647941589355,26.3116416931152,27.4047966003418,28.1911334991455
"NW","NWS61","Imperieuse edge RS3-3",-17.5582,118.9724,2.8199999332428,3,29.0097999572754,29.1138229370117,29.6247367858887,29.5470676422119,28.2347736358643,27.0889892578125,25.6616382598877,25.0286903381348,25.4391613006592,26.2951908111572,27.3898792266846,28.1810073852539
"NW","NWS62","Imperieuse anchorage",-17.50713,118.96635,3.47000002861023,3.04999995231628,29.0137615203857,29.1085567474365,29.6199913024902,29.5576801300049,28.2517547607422,27.1049404144287,25.6790752410889,25.04736328125,25.4647941589355,26.3116416931152,27.4047966003418,28.1911334991455
"NW","NWS63","Imperieuse north",-17.50218,118.96276,3.47000002861023,3.04999995231628,29.0137615203857,29.1085567474365,29.6199913024902,29.5576801300049,28.2517547607422,27.1049404144287,25.6790752410889,25.04736328125,25.4647941589355,26.3116416931152,27.4047966003418,28.1911334991455
"NW","NWS64","Imperieuse north lagoon",-17.56045,118.94214,1.87999999523163,2.93999981880188,29.0041980743408,29.118824005127,29.6279945373535,29.5424823760986,28.2334079742432,27.0839977264404,25.6662998199463,25.0369396209717,25.4381484985352,26.289005279541,27.3722629547119,28.1770191192627
"NW","NWS65","Mermaid south M7",-17.1641,119.6277,7.04999971389771,2.71000003814697,29.2576236724854,29.1579666137695,29.755765914917,29.7155055999756,28.4491157531738,27.2996864318848,25.8283157348633,25.1907978057861,25.6720790863037,26.6502418518066,27.7918834686279,28.4723148345947
"NW","NWS66","Mermaid anchorage dropoff 1.3",-17.0764,119.6539,7.61999988555908,2.82999992370605,29.2821445465088,29.1859474182129,29.7668800354004,29.7394695281982,28.4922065734863,27.3413410186768,25.8637580871582,25.2585029602051,25.734338760376,26.7227630615234,27.8485698699951,28.5170936584473
"NW","NWS67","Mermaid anchorage bommie",-17.07374,119.6455,7.42999982833862,2.79999995231628,29.2673149108887,29.168384552002,29.7520141601562,29.7321472167969,28.48459815979,27.332088470459,25.8670806884766,25.2457027435303,25.7268390655518,26.7058563232422,27.8341121673584,28.5000267028809
"NW","NWS68","Mermaid S channel entrance",-17.06263,119.64696,7.42999982833862,2.79999995231628,29.2673149108887,29.168384552002,29.7520141601562,29.7321472167969,28.48459815979,27.332088470459,25.8670806884766,25.2457027435303,25.7268390655518,26.7058563232422,27.8341121673584,28.5000267028809
"NW","NWS69","Mermaid anchorage dropoff 1.1",-17.0658,119.6494,7.42999982833862,2.79999995231628,29.2673149108887,29.168384552002,29.7520141601562,29.7321472167969,28.48459815979,27.332088470459,25.8670806884766,25.2457027435303,25.7268390655518,26.7058563232422,27.8341121673584,28.5000267028809
"NW","NWS7","Big Fish Gulch",-11.9671,123.3586,15.9499998092651,2.3899998664856,29.4255294799805,29.2740879058838,29.1638698577881,29.1487426757812,28.652322769165,27.7163619995117,26.6907806396484,26.4344520568848,27.1565685272217,28.448169708252,29.4153461456299,29.3193397521973
"NW","NWS70","Mermaid SW bommie M11",-17.13371,119.6339,7.21000003814697,2.77999997138977,29.2621784210205,29.1608028411865,29.7541790008545,29.7230281829834,28.4663429260254,27.3147659301758,25.847074508667,25.2191772460938,25.6992416381836,26.6779632568359,27.8125514984131,28.4879417419434
"NW","NWS71","Mermaid S bommie",-17.15365,119.6311,7.04999971389771,2.71000003814697,29.2576236724854,29.1579666137695,29.755765914917,29.7155055999756,28.4491157531738,27.2996864318848,25.8283157348633,25.1907978057861,25.6720790863037,26.6502418518066,27.7918834686279,28.4723148345947
"NW","NWS72","Mermaid Reef Lagoon Dragon",-17.0754,119.64617,7.42999982833862,2.79999995231628,29.2673149108887,29.168384552002,29.7520141601562,29.7321472167969,28.48459815979,27.332088470459,25.8670806884766,25.2457027435303,25.7268390655518,26.7058563232422,27.8341121673584,28.5000267028809
"NW","NWS73","Mermaid channel mid bank",-17.06644,119.64167,7.42999982833862,2.79999995231628,29.2673149108887,29.168384552002,29.7520141601562,29.7321472167969,28.48459815979,27.332088470459,25.8670806884766,25.2457027435303,25.7268390655518,26.7058563232422,27.8341121673584,28.5000267028809
"NW","NWS74","Mermaid Lagoon Reef Dragon Escape",-17.06983,119.643667,7.42999982833862,2.79999995231628,29.2673149108887,29.168384552002,29.7520141601562,29.7321472167969,28.48459815979,27.332088470459,25.8670806884766,25.2457027435303,25.7268390655518,26.7058563232422,27.8341121673584,28.5000267028809
"NW","NWS75","Mermaid west lagoon",-17.08687,119.6148,7.42999982833862,2.79999995231628,29.2673149108887,29.168384552002,29.7520141601562,29.7321472167969,28.48459815979,27.332088470459,25.8670806884766,25.2457027435303,25.7268390655518,26.7058563232422,27.8341121673584,28.5000267028809
"NW","NWS76","Mermaid central bommie",-17.11469,119.63474,7.21000003814697,2.77999997138977,29.2621784210205,29.1608028411865,29.7541790008545,29.7230281829834,28.4663429260254,27.3147659301758,25.847074508667,25.2191772460938,25.6992416381836,26.6779632568359,27.8125514984131,28.4879417419434
"NW","NWS77","Mermaid Reef Cod Hole",-17.06202,119.64815,7.42999982833862,2.79999995231628,29.2673149108887,29.168384552002,29.7520141601562,29.7321472167969,28.48459815979,27.332088470459,25.8670806884766,25.2457027435303,25.7268390655518,26.7058563232422,27.8341121673584,28.5000267028809
"NW","NWS78","Mermaid channel bommies",-17.0666,119.64027,7.42999982833862,2.79999995231628,29.2673149108887,29.168384552002,29.7520141601562,29.7321472167969,28.48459815979,27.332088470459,25.8670806884766,25.2457027435303,25.7268390655518,26.7058563232422,27.8341121673584,28.5000267028809
"NW","NWS79","Mermaid dropoff 1.2",-17.0721,119.6533,7.61999988555908,2.82999992370605,29.2821445465088,29.1859474182129,29.7668800354004,29.7394695281982,28.4922065734863,27.3413410186768,25.8637580871582,25.2585029602051,25.734338760376,26.7227630615234,27.8485698699951,28.5170936584473
"NW","NWS8","Hibernia Lagoon South",-11.97908,123.36079,15.9499998092651,2.3899998664856,29.4255294799805,29.2740879058838,29.1638698577881,29.1487426757812,28.652322769165,27.7163619995117,26.6907806396484,26.4344520568848,27.1565685272217,28.448169708252,29.4153461456299,29.3193397521973
"NW","NWS80","Mermaid Reef No Pygmy",-17.08181,119.65518,7.61999988555908,2.82999992370605,29.2821445465088,29.1859474182129,29.7668800354004,29.7394695281982,28.4922065734863,27.3413410186768,25.8637580871582,25.2585029602051,25.734338760376,26.7227630615234,27.8485698699951,28.5170936584473
"NW","NWS81","Mermaid North M1",-17.02767,119.61792,7.87999963760376,2.8199999332428,29.272705078125,29.1797847747803,29.7500190734863,29.7423992156982,28.5040760040283,27.3489437103271,25.8884773254395,25.271203994751,25.7544822692871,26.7355690002441,27.8557014465332,28.510669708252
"NW","NWS82","Mermaid west dropoff M4",-17.0762,119.5962,7.50999975204468,2.72000002861023,29.2532291412354,29.1542625427246,29.7392349243164,29.7266540527344,28.4785270690918,27.3241710662842,25.8733024597168,25.2350902557373,25.7223281860352,26.6890811920166,27.8200588226318,28.484899520874
"NW","NWS83","Clerke North C1B",-17.24607,119.35201,7.35999965667725,2.75999999046326,29.1779937744141,29.1108684539795,29.6784343719482,29.6806659698486,28.3893661499023,27.2414226531982,25.8215484619141,25.1334075927734,25.6271800994873,26.5271606445312,27.708854675293,28.3801288604736
"NW","NWS84","Clerke North Point",-17.24612,119.34713,7,2.77999997138977,29.1671276092529,29.1118316650391,29.6680316925049,29.6814022064209,28.3853321075439,27.2367668151855,25.8266658782959,25.1328887939453,25.62868309021,26.5108871459961,27.6968612670898,28.3679275512695
"NW","NWS85","Clerke Reef - Far too early",-17.24607,119.35201,7.35999965667725,2.75999999046326,29.1779937744141,29.1108684539795,29.6784343719482,29.6806659698486,28.3893661499023,27.2414226531982,25.8215484619141,25.1334075927734,25.6271800994873,26.5271606445312,27.708854675293,28.3801288604736
"NW","NWS86","Clerke anchorage dropoff 2.1",-17.2927,119.3781,6.89999961853027,2.75,29.1707057952881,29.1162567138672,29.6743717193604,29.6695003509521,28.3705959320068,27.2291603088379,25.8005828857422,25.111837387085,25.6001224517822,26.5028381347656,27.687536239624,28.3617515563965
"NW","NWS87","Clerke Anchorage Dropoff 2.2",-17.2843,119.3769,6.89999961853027,2.75,29.1707057952881,29.1162567138672,29.6743717193604,29.6695003509521,28.3705959320068,27.2291603088379,25.8005828857422,25.111837387085,25.6001224517822,26.5028381347656,27.687536239624,28.3617515563965
"NW","NWS88","Clerke anchorage dropoff 2.3",-17.288,119.3775,6.89999961853027,2.75,29.1707057952881,29.1162567138672,29.6743717193604,29.6695003509521,28.3705959320068,27.2291603088379,25.8005828857422,25.111837387085,25.6001224517822,26.5028381347656,27.687536239624,28.3617515563965
"NW","NWS89","Blue lagoon",-17.25302,119.36037,6.89999961853027,2.75,29.1707057952881,29.1162567138672,29.6743717193604,29.6695003509521,28.3705959320068,27.2291603088379,25.8005828857422,25.111837387085,25.6001224517822,26.5028381347656,27.687536239624,28.3617515563965
"NW","NWS9","Spur and Groove Reef",-11.9706,123.33694,15.9499998092651,2.36999988555908,29.4173412322998,29.2684574127197,29.1632804870605,29.1384410858154,28.6469478607178,27.7150535583496,26.6886672973633,26.4362850189209,27.1565895080566,28.445629119873,29.4148712158203,29.3190898895264
"NW","NWS90","Clerke Reef Snorkelling Paradise",-17.28632,119.3724,6.89999961853027,2.75,29.1707057952881,29.1162567138672,29.6743717193604,29.6695003509521,28.3705959320068,27.2291603088379,25.8005828857422,25.111837387085,25.6001224517822,26.5028381347656,27.687536239624,28.3617515563965
"NW","NWS91","Clerke NE C14",-17.28312,119.37301,6.89999961853027,2.75,29.1707057952881,29.1162567138672,29.6743717193604,29.6695003509521,28.3705959320068,27.2291603088379,25.8005828857422,25.111837387085,25.6001224517822,26.5028381347656,27.687536239624,28.3617515563965
"NW","NWS92","Clerke Reef Aquarium",-17.28321,119.37053,6.89999961853027,2.75,29.1707057952881,29.1162567138672,29.6743717193604,29.6695003509521,28.3705959320068,27.2291603088379,25.8005828857422,25.111837387085,25.6001224517822,26.5028381347656,27.687536239624,28.3617515563965
"NW","NWS93","Clerke west lagoon C26",-17.29772,119.3423,6.83999967575073,2.77999997138977,29.1576766967773,29.1149559020996,29.6627521514893,29.6698207855225,28.3665523529053,27.2256107330322,25.8054389953613,25.111743927002,25.6010131835938,26.4860095977783,27.6738262176514,28.3505306243896
"NW","NWS94","Clerke west C12",-17.30364,119.33673,6.6399998664856,2.86999988555908,29.1496772766113,29.1224594116211,29.6610336303711,29.6582279205322,28.3502731323242,27.2162399291992,25.7857761383057,25.0920448303223,25.5766353607178,26.4649715423584,27.6512126922607,28.3322715759277
